[
  {
    "COD_REG": 12,
    "NOM_REG": "Región De Magallanes y de la Antártica Chilena",
    "TIPO": "Hospital",
    "NOMBRE": "Hospital Comunitario Cristina Calderón de Puerto Williams",
    "NUMERO": 246,
    "DIRECCION": "O'Higgins 246",
    "FONO": "612453636",
    "LATITUD": -54.93521,
    "LONGITUD": -67.60039,
    "REGION": "MAGALLANES Y DE LA ANTÁRTICA CHILENA",
    "PROVINCIA": "Antártica Chilena",
    "COMUNA": "Cabo de Hornos"
  },
  {
    "COD_REG": 12,
    "NOM_REG": "Región De Magallanes y de la Antártica Chilena",
    "TIPO": "Hospital",
    "NOMBRE": "Hospital Naval (Puerto Williams)",
    "NUMERO": 56,
    "DIRECCION": "Mc Intyre, Puerto Williams 56",
    "FONO": "612624328",
    "LATITUD": -54.934374,
    "LONGITUD": -67.608895,
    "REGION": "MAGALLANES Y DE LA ANTÁRTICA CHILENA",
    "PROVINCIA": "Antártica Chilena",
    "COMUNA": "Cabo de Hornos"
  },
  {
    "COD_REG": 12,
    "NOM_REG": "Región De Magallanes y de la Antártica Chilena",
    "TIPO": "Posta de Salud Rural (PSR)",
    "NOMBRE": "Posta de Salud Rural Cameron",
    "NUMERO": null,
    "DIRECCION": "Caserío de Camerón",
    "FONO": "74613302",
    "LATITUD": -53.64055,
    "LONGITUD": -69.64585,
    "REGION": "MAGALLANES Y DE LA ANTÁRTICA CHILENA",
    "PROVINCIA": "Tierra del Fuego",
    "COMUNA": "Timaukel"
  },
  {
    "COD_REG": 12,
    "NOM_REG": "Región De Magallanes y de la Antártica Chilena",
    "TIPO": "Posta de Salud Rural (PSR)",
    "NOMBRE": "Posta de Salud Rural Agua Fresca",
    "NUMERO": null,
    "DIRECCION": "Caserío de Agua Fresca",
    "FONO": "612260555",
    "LATITUD": -53.40424,
    "LONGITUD": -70.99016,
    "REGION": "MAGALLANES Y DE LA ANTÁRTICA CHILENA",
    "PROVINCIA": "Magallanes",
    "COMUNA": "Punta Arenas"
  },
  {
    "COD_REG": 12,
    "NOM_REG": "Región De Magallanes y de la Antártica Chilena",
    "TIPO": "Hospital",
    "NOMBRE": "Hospital Dr. Marco Antonio Chamorro ( Porvenir)",
    "NUMERO": 480,
    "DIRECCION": "Carlos Wood 480",
    "FONO": "612291800",
    "LATITUD": -53.29816,
    "LONGITUD": -70.35838,
    "REGION": "MAGALLANES Y DE LA ANTÁRTICA CHILENA",
    "PROVINCIA": null,
    "COMUNA": "Porvenir"
  },
  {
    "COD_REG": 8,
    "NOM_REG": "Región Del Bíobío",
    "TIPO": "Clínica Dental",
    "NOMBRE": "UNO SALUD DENTAL LOS ÁNGELES 2",
    "NUMERO": 610,
    "DIRECCION": "ALEMANIA 610",
    "FONO": null,
    "LATITUD": -37.468505,
    "LONGITUD": -72.340387,
    "REGION": "REGIÓN DEL BÍOBÍO",
    "PROVINCIA": null,
    "COMUNA": "Los Ángeles"
  },
  {
    "COD_REG": 12,
    "NOM_REG": "Región De Magallanes y de la Antártica Chilena",
    "TIPO": "Centro Comunitario de Salud Familiar (CECOSF)",
    "NOMBRE": "Centro Comunitario de Salud Familiar Dr. Juan Damianovic",
    "NUMERO": 370,
    "DIRECCION": "Linao 370",
    "FONO": null,
    "LATITUD": -53.18041,
    "LONGITUD": -70.95141,
    "REGION": "MAGALLANES Y DE LA ANTÁRTICA CHILENA",
    "PROVINCIA": "Magallanes",
    "COMUNA": "Punta Arenas"
  },
  {
    "COD_REG": 12,
    "NOM_REG": "Región De Magallanes y de la Antártica Chilena",
    "TIPO": "Centro Comunitario de Salud Mental  (COSAM)",
    "NOMBRE": "COSAM Punta Arenas",
    "NUMERO": 225,
    "DIRECCION": "Junta de Gobierno 225",
    "FONO": "612291250",
    "LATITUD": -53.178248,
    "LONGITUD": -70.922132,
    "REGION": "MAGALLANES Y DE LA ANTÁRTICA CHILENA",
    "PROVINCIA": "Magallanes",
    "COMUNA": "Punta Arenas"
  },
  {
    "COD_REG": 12,
    "NOM_REG": "Región De Magallanes y de la Antártica Chilena",
    "TIPO": "Servicio de Atención Primaria de Urgencia de Alta Resolutividad (SAR)",
    "NOMBRE": "SAR Dr. Juan Damianovic",
    "NUMERO": 2850,
    "DIRECCION": "Zenteno 2850",
    "FONO": "612260555",
    "LATITUD": -53.174898,
    "LONGITUD": -70.938015,
    "REGION": "MAGALLANES Y DE LA ANTÁRTICA CHILENA",
    "PROVINCIA": "Magallanes",
    "COMUNA": "Punta Arenas"
  },
  {
    "COD_REG": 12,
    "NOM_REG": "Región De Magallanes y de la Antártica Chilena",
    "TIPO": "Centro de Salud Familiar (CESFAM)",
    "NOMBRE": "Centro de Salud Familiar Dr. Juan Damianovic",
    "NUMERO": 1102,
    "DIRECCION": "Zenteno 1102",
    "FONO": "800500988",
    "LATITUD": -53.17495,
    "LONGITUD": -70.93796,
    "REGION": "MAGALLANES Y DE LA ANTÁRTICA CHILENA",
    "PROVINCIA": "Magallanes",
    "COMUNA": "Punta Arenas"
  },
  {
    "COD_REG": 12,
    "NOM_REG": "Región De Magallanes y de la Antártica Chilena",
    "TIPO": "Centro de Salud Privado",
    "NOMBRE": "Centro de Salud Mutual CChC Punta Arenas",
    "NUMERO": 1890,
    "DIRECCION": "España 1890",
    "FONO": "612207800",
    "LATITUD": -53.168237,
    "LONGITUD": -70.922324,
    "REGION": "MAGALLANES Y DE LA ANTÁRTICA CHILENA",
    "PROVINCIA": "Magallanes",
    "COMUNA": "Punta Arenas"
  },
  {
    "COD_REG": 12,
    "NOM_REG": "Región De Magallanes y de la Antártica Chilena",
    "TIPO": "Laboratorio Clínico",
    "NOMBRE": "Laboratorio Clínico de Agostini y Cia. Ltda.",
    "NUMERO": 472,
    "DIRECCION": "Perez de Arce 472",
    "FONO": "612244454",
    "LATITUD": -53.168016,
    "LONGITUD": -70.91972,
    "REGION": "MAGALLANES Y DE LA ANTÁRTICA CHILENA",
    "PROVINCIA": "Magallanes",
    "COMUNA": "Punta Arenas"
  },
  {
    "COD_REG": 12,
    "NOM_REG": "Región De Magallanes y de la Antártica Chilena",
    "TIPO": "Laboratorio Clínico",
    "NOMBRE": "Laboratorio Clínico Corporación Municipal Punta Arenas",
    "NUMERO": 1890,
    "DIRECCION": "España 1890",
    "FONO": null,
    "LATITUD": -53.167827,
    "LONGITUD": -70.920882,
    "REGION": "MAGALLANES Y DE LA ANTÁRTICA CHILENA",
    "PROVINCIA": "Magallanes",
    "COMUNA": "Punta Arenas"
  },
  {
    "COD_REG": 12,
    "NOM_REG": "Región De Magallanes y de la Antártica Chilena",
    "TIPO": "Unidad de Salud Funcionarios",
    "NOMBRE": "Unidad de Salud Funcionario  S.S Magallanes",
    "NUMERO": 1228,
    "DIRECCION": "Lautaro Navarro 1228",
    "FONO": null,
    "LATITUD": -53.165562,
    "LONGITUD": -70.908047,
    "REGION": "MAGALLANES Y DE LA ANTÁRTICA CHILENA",
    "PROVINCIA": "Magallanes",
    "COMUNA": "Punta Arenas"
  },
  {
    "COD_REG": 12,
    "NOM_REG": "Región De Magallanes y de la Antártica Chilena",
    "TIPO": "Dirección Servicio de Salud",
    "NOMBRE": "Actividades gestionadas por la Dirección del Servicio para apoyo de la Red (S.S de Magallanes)",
    "NUMERO": 1228,
    "DIRECCION": "Lautaro Navarro 1228",
    "FONO": null,
    "LATITUD": -53.165562,
    "LONGITUD": -70.908047,
    "REGION": "MAGALLANES Y DE LA ANTÁRTICA CHILENA",
    "PROVINCIA": "Magallanes",
    "COMUNA": "Punta Arenas"
  },
  {
    "COD_REG": 12,
    "NOM_REG": "Región De Magallanes y de la Antártica Chilena",
    "TIPO": "Programa de Reparación y Atención Integral de Salud (PRAIS)",
    "NOMBRE": "PRAIS (S.S Magallanes)",
    "NUMERO": 1228,
    "DIRECCION": "Lautaro Navarro 1228",
    "FONO": null,
    "LATITUD": -53.165562,
    "LONGITUD": -70.908047,
    "REGION": "MAGALLANES Y DE LA ANTÁRTICA CHILENA",
    "PROVINCIA": "Magallanes",
    "COMUNA": "Punta Arenas"
  },
  {
    "COD_REG": 12,
    "NOM_REG": "Región De Magallanes y de la Antártica Chilena",
    "TIPO": "Servicio de Atención Primaria de Urgencia (SAPU)",
    "NOMBRE": "SAPU 18 de Septiembre",
    "NUMERO": 1893,
    "DIRECCION": "Mateo de Toro y Zambrano 1893",
    "FONO": "612260730",
    "LATITUD": -53.165297,
    "LONGITUD": -70.930831,
    "REGION": "MAGALLANES Y DE LA ANTÁRTICA CHILENA",
    "PROVINCIA": "Magallanes",
    "COMUNA": "Punta Arenas"
  },
  {
    "COD_REG": 12,
    "NOM_REG": "Región De Magallanes y de la Antártica Chilena",
    "TIPO": "Centro de Salud Familiar (CESFAM)",
    "NOMBRE": "Centro de Salud Familiar 18 Septiembre",
    "NUMERO": 1893,
    "DIRECCION": "Mateo de Toro y Zambrano 1893",
    "FONO": "800500986",
    "LATITUD": -53.16522,
    "LONGITUD": -70.93107,
    "REGION": "MAGALLANES Y DE LA ANTÁRTICA CHILENA",
    "PROVINCIA": "Magallanes",
    "COMUNA": "Punta Arenas"
  },
  {
    "COD_REG": 12,
    "NOM_REG": "Región De Magallanes y de la Antártica Chilena",
    "TIPO": "Vacunatorio",
    "NOMBRE": "Vacunatorio SEREMI de Salud Magallanes",
    "NUMERO": 756,
    "DIRECCION": "Balmaceda 756",
    "FONO": "612291374",
    "LATITUD": -53.164875,
    "LONGITUD": -70.910293,
    "REGION": "MAGALLANES Y DE LA ANTÁRTICA CHILENA",
    "PROVINCIA": "Magallanes",
    "COMUNA": "Punta Arenas"
  },
  {
    "COD_REG": 12,
    "NOM_REG": "Región De Magallanes y de la Antártica Chilena",
    "TIPO": "Clínica",
    "NOMBRE": "Clínica de Recuperación Hogar de Cristo Juan Pablo II",
    "NUMERO": 736,
    "DIRECCION": "Balmaceda 736",
    "FONO": "612242215",
    "LATITUD": -53.164726,
    "LONGITUD": -70.91057,
    "REGION": "MAGALLANES Y DE LA ANTÁRTICA CHILENA",
    "PROVINCIA": "Magallanes",
    "COMUNA": "Punta Arenas"
  },
  {
    "COD_REG": 12,
    "NOM_REG": "Región De Magallanes y de la Antártica Chilena",
    "TIPO": "Centro de Salud Privado",
    "NOMBRE": "Centro Diagnóstico  Clinica  Magallanes",
    "NUMERO": 890,
    "DIRECCION": "Presidente Pedro Montt 890",
    "FONO": null,
    "LATITUD": -53.16293,
    "LONGITUD": -70.923197,
    "REGION": "MAGALLANES Y DE LA ANTÁRTICA CHILENA",
    "PROVINCIA": "Magallanes",
    "COMUNA": "Punta Arenas"
  },
  {
    "COD_REG": 12,
    "NOM_REG": "Región De Magallanes y de la Antártica Chilena",
    "TIPO": "Centro de Salud Privado",
    "NOMBRE": "Centro Médico y Dental MegaSalud S.A Punta Arenas",
    "NUMERO": 890,
    "DIRECCION": "Puerto Montt 890",
    "FONO": "612241110",
    "LATITUD": -53.162831,
    "LONGITUD": -70.905418,
    "REGION": "MAGALLANES Y DE LA ANTÁRTICA CHILENA",
    "PROVINCIA": "Magallanes",
    "COMUNA": "Punta Arenas"
  },
  {
    "COD_REG": 12,
    "NOM_REG": "Región De Magallanes y de la Antártica Chilena",
    "TIPO": "Laboratorio Clínico",
    "NOMBRE": "Laboratorio Magallanes",
    "NUMERO": null,
    "DIRECCION": "Cristobal Colón 1040-D",
    "FONO": "612244454",
    "LATITUD": -53.161713,
    "LONGITUD": -70.900754,
    "REGION": "MAGALLANES Y DE LA ANTÁRTICA CHILENA",
    "PROVINCIA": "Magallanes",
    "COMUNA": "Punta Arenas"
  },
  {
    "COD_REG": 12,
    "NOM_REG": "Región De Magallanes y de la Antártica Chilena",
    "TIPO": "Laboratorio Clínico",
    "NOMBRE": "Laboratorio Clínico Medi-Lab S.A",
    "NUMERO": 504,
    "DIRECCION": "Monseñor Fagnano 504",
    "FONO": "61-2615165",
    "LATITUD": -53.161592,
    "LONGITUD": -70.90533,
    "REGION": "MAGALLANES Y DE LA ANTÁRTICA CHILENA",
    "PROVINCIA": "Magallanes",
    "COMUNA": "Punta Arenas"
  },
  {
    "COD_REG": 12,
    "NOM_REG": "Región De Magallanes y de la Antártica Chilena",
    "TIPO": "Centro de Salud Privado",
    "NOMBRE": "Centro Médico Medvital",
    "NUMERO": 1057,
    "DIRECCION": "Armando Sanhueza 1057",
    "FONO": "612235485",
    "LATITUD": -53.161227,
    "LONGITUD": -70.911645,
    "REGION": "MAGALLANES Y DE LA ANTÁRTICA CHILENA",
    "PROVINCIA": "Magallanes",
    "COMUNA": "Punta Arenas"
  },
  {
    "COD_REG": 12,
    "NOM_REG": "Región De Magallanes y de la Antártica Chilena",
    "TIPO": "Centro de Salud Privado",
    "NOMBRE": "Policlínico de la Fuerzas Armadas y de Orden",
    "NUMERO": 611,
    "DIRECCION": "José Menendez 611",
    "FONO": "612241206",
    "LATITUD": -53.160682,
    "LONGITUD": -70.908544,
    "REGION": "MAGALLANES Y DE LA ANTÁRTICA CHILENA",
    "PROVINCIA": "Magallanes",
    "COMUNA": "Punta Arenas"
  },
  {
    "COD_REG": 12,
    "NOM_REG": "Región De Magallanes y de la Antártica Chilena",
    "TIPO": "Clínica",
    "NOMBRE": "Clínica Croacia",
    "NUMERO": 1053,
    "DIRECCION": "Sarmiento 1053",
    "FONO": "612228903",
    "LATITUD": -53.158399,
    "LONGITUD": -70.896966,
    "REGION": "MAGALLANES Y DE LA ANTÁRTICA CHILENA",
    "PROVINCIA": "Magallanes",
    "COMUNA": "Punta Arenas"
  },
  {
    "COD_REG": 12,
    "NOM_REG": "Región De Magallanes y de la Antártica Chilena",
    "TIPO": "Centro de Salud Privado",
    "NOMBRE": "Instituto Médico Sarmiento",
    "NUMERO": 607,
    "DIRECCION": "Sarmiento 607",
    "FONO": "612238587",
    "LATITUD": -53.155788,
    "LONGITUD": -70.903864,
    "REGION": "MAGALLANES Y DE LA ANTÁRTICA CHILENA",
    "PROVINCIA": "Magallanes",
    "COMUNA": "Punta Arenas"
  },
  {
    "COD_REG": 12,
    "NOM_REG": "Región De Magallanes y de la Antártica Chilena",
    "TIPO": "Centro de Salud Familiar (CESFAM)",
    "NOMBRE": "Centro de Salud Familiar Carlos Ibáñez",
    "NUMERO": null,
    "DIRECCION": "Eduardo Frei",
    "FONO": "800500987",
    "LATITUD": -53.15522,
    "LONGITUD": -70.93044,
    "REGION": "MAGALLANES Y DE LA ANTÁRTICA CHILENA",
    "PROVINCIA": "Magallanes",
    "COMUNA": "Punta Arenas"
  },
  {
    "COD_REG": 12,
    "NOM_REG": "Región De Magallanes y de la Antártica Chilena",
    "TIPO": "Servicio de Atención Primaria de Urgencia (SAPU)",
    "NOMBRE": "SAPU Carlos  Ibañez",
    "NUMERO": 1102,
    "DIRECCION": "Frei 1102",
    "FONO": "612281443",
    "LATITUD": -53.155217,
    "LONGITUD": -70.93044,
    "REGION": "MAGALLANES Y DE LA ANTÁRTICA CHILENA",
    "PROVINCIA": "Magallanes",
    "COMUNA": "Punta Arenas"
  },
  {
    "COD_REG": 12,
    "NOM_REG": "Región De Magallanes y de la Antártica Chilena",
    "TIPO": "Centro de Salud Privado",
    "NOMBRE": "Central Odontológica de Magallanes de 3era Zona Naval",
    "NUMERO": 256,
    "DIRECCION": "Bulnes 256",
    "FONO": "612207511",
    "LATITUD": -53.154624,
    "LONGITUD": -70.901345,
    "REGION": "MAGALLANES Y DE LA ANTÁRTICA CHILENA",
    "PROVINCIA": "Magallanes",
    "COMUNA": "Punta Arenas"
  },
  {
    "COD_REG": 12,
    "NOM_REG": "Región De Magallanes y de la Antártica Chilena",
    "TIPO": "Hospital",
    "NOMBRE": "Hospital FFAA Cirujano Guzmán",
    "NUMERO": 256,
    "DIRECCION": "Bulnes 256",
    "FONO": "612207500",
    "LATITUD": -53.154624,
    "LONGITUD": -70.901345,
    "REGION": "MAGALLANES Y DE LA ANTÁRTICA CHILENA",
    "PROVINCIA": "Magallanes",
    "COMUNA": "Punta Arenas"
  },
  {
    "COD_REG": 12,
    "NOM_REG": "Región De Magallanes y de la Antártica Chilena",
    "TIPO": "Centro de Salud Familiar (CESFAM)",
    "NOMBRE": "Centro de Salud Familiar Dr. Thomas Fenton",
    "NUMERO": 762,
    "DIRECCION": "Prolongación Velastegui 762",
    "FONO": "800500989",
    "LATITUD": -53.14821,
    "LONGITUD": -70.88754,
    "REGION": "MAGALLANES Y DE LA ANTÁRTICA CHILENA",
    "PROVINCIA": "Magallanes",
    "COMUNA": "Punta Arenas"
  },
  {
    "COD_REG": 12,
    "NOM_REG": "Región De Magallanes y de la Antártica Chilena",
    "TIPO": "Centro de Salud Privado",
    "NOMBRE": "Centro de Rehabilitación Club de Leones Cruz del Sur",
    "NUMERO": 1411,
    "DIRECCION": "Suiza 1411",
    "FONO": "612217396",
    "LATITUD": -53.143158,
    "LONGITUD": -70.881773,
    "REGION": "MAGALLANES Y DE LA ANTÁRTICA CHILENA",
    "PROVINCIA": "Magallanes",
    "COMUNA": "Punta Arenas"
  },
  {
    "COD_REG": 12,
    "NOM_REG": "Región De Magallanes y de la Antártica Chilena",
    "TIPO": "Centro de Salud Familiar (CESFAM)",
    "NOMBRE": "Centro de Salud Familiar Dr. Mateo Bencur",
    "NUMERO": 781,
    "DIRECCION": "Capitán Guillermo 781",
    "FONO": "800500990",
    "LATITUD": -53.14212,
    "LONGITUD": -70.91263,
    "REGION": "MAGALLANES Y DE LA ANTÁRTICA CHILENA",
    "PROVINCIA": "Magallanes",
    "COMUNA": "Punta Arenas"
  },
  {
    "COD_REG": 12,
    "NOM_REG": "Región De Magallanes y de la Antártica Chilena",
    "TIPO": "Servicio de Atención Primaria de Urgencia (SAPU)",
    "NOMBRE": "SAPU Dr. Mateo Bencur",
    "NUMERO": 781,
    "DIRECCION": "Capitán Guillermo 781",
    "FONO": "612210142",
    "LATITUD": -53.141867,
    "LONGITUD": -70.912506,
    "REGION": "MAGALLANES Y DE LA ANTÁRTICA CHILENA",
    "PROVINCIA": "Magallanes",
    "COMUNA": "Punta Arenas"
  },
  {
    "COD_REG": 13,
    "NOM_REG": "Región Metropolitana de Santiago",
    "TIPO": "Clínica Dental",
    "NOMBRE": "CEINSA",
    "NUMERO": 431,
    "DIRECCION": "Eduardo Cordero 431",
    "FONO": "227922092",
    "LATITUD": -33.605288,
    "LONGITUD": -70.570507,
    "REGION": "REGIÓN METROPOLITANA DE SANTIAGO",
    "PROVINCIA": null,
    "COMUNA": "Puente Alto"
  },
  {
    "COD_REG": 12,
    "NOM_REG": "Región De Magallanes y de la Antártica Chilena",
    "TIPO": "Centro de Salud Privado",
    "NOMBRE": "Policlínico AChS (Punta Arenas)",
    "NUMERO": null,
    "DIRECCION": "Presidente Manuel Bulnes",
    "FONO": "612206400",
    "LATITUD": -53.137931,
    "LONGITUD": -70.887143,
    "REGION": "MAGALLANES Y DE LA ANTÁRTICA CHILENA",
    "PROVINCIA": "Magallanes",
    "COMUNA": "Punta Arenas"
  },
  {
    "COD_REG": 12,
    "NOM_REG": "Región De Magallanes y de la Antártica Chilena",
    "TIPO": "Clínica",
    "NOMBRE": "Clínica Magallanes",
    "NUMERO": 1448,
    "DIRECCION": "Bulnes 1448",
    "FONO": "612227301",
    "LATITUD": -53.137303,
    "LONGITUD": -70.887283,
    "REGION": "MAGALLANES Y DE LA ANTÁRTICA CHILENA",
    "PROVINCIA": "Magallanes",
    "COMUNA": "Punta Arenas"
  },
  {
    "COD_REG": 12,
    "NOM_REG": "Región De Magallanes y de la Antártica Chilena",
    "TIPO": "Centro de Salud Privado",
    "NOMBRE": "Centro de Atención Instituto de Seguridad del Trabajador Punta Arenas",
    "NUMERO": 1643,
    "DIRECCION": "Bulnes 1643",
    "FONO": "612210738",
    "LATITUD": -53.136785,
    "LONGITUD": -70.884704,
    "REGION": "MAGALLANES Y DE LA ANTÁRTICA CHILENA",
    "PROVINCIA": "Magallanes",
    "COMUNA": "Punta Arenas"
  },
  {
    "COD_REG": 12,
    "NOM_REG": "Región De Magallanes y de la Antártica Chilena",
    "TIPO": "Centro de Salud Privado",
    "NOMBRE": "Clínica IMET",
    "NUMERO": 4236,
    "DIRECCION": "Presidente Manuel Bulnes 4236",
    "FONO": "612363000",
    "LATITUD": -53.129674,
    "LONGITUD": -70.877252,
    "REGION": "MAGALLANES Y DE LA ANTÁRTICA CHILENA",
    "PROVINCIA": "Magallanes",
    "COMUNA": "Punta Arenas"
  },
  {
    "COD_REG": 12,
    "NOM_REG": "Región De Magallanes y de la Antártica Chilena",
    "TIPO": "Centro Comunitario de Salud Familiar (CECOSF)",
    "NOMBRE": "Centro Comunitario de Salud Familiar Dr. Mateo Bencur",
    "NUMERO": 1814,
    "DIRECCION": "Juan Ruiz García 1814",
    "FONO": "612215133",
    "LATITUD": -53.12652,
    "LONGITUD": -70.91809,
    "REGION": "MAGALLANES Y DE LA ANTÁRTICA CHILENA",
    "PROVINCIA": "Magallanes",
    "COMUNA": "Punta Arenas"
  },
  {
    "COD_REG": 12,
    "NOM_REG": "Región De Magallanes y de la Antártica Chilena",
    "TIPO": "Hospital",
    "NOMBRE": "Hospital Clínico de Magallanes Dr. Lautaro Navarro Avaria",
    "NUMERO": 1364,
    "DIRECCION": "Los Flamencos 1364",
    "FONO": "612293000",
    "LATITUD": -53.12215,
    "LONGITUD": -70.896232,
    "REGION": "MAGALLANES Y DE LA ANTÁRTICA CHILENA",
    "PROVINCIA": "Magallanes",
    "COMUNA": "Punta Arenas"
  },
  {
    "COD_REG": 12,
    "NOM_REG": "Región De Magallanes y de la Antártica Chilena",
    "TIPO": "Centro Comunitario de Salud Familiar (CECOSF)",
    "NOMBRE": "Centro Comunitario de Salud Familiar Río Seco",
    "NUMERO": null,
    "DIRECCION": "Sector Río Seco",
    "FONO": null,
    "LATITUD": -53.05755,
    "LONGITUD": -70.85788,
    "REGION": "MAGALLANES Y DE LA ANTÁRTICA CHILENA",
    "PROVINCIA": "Magallanes",
    "COMUNA": "Punta Arenas"
  },
  {
    "COD_REG": 12,
    "NOM_REG": "Región De Magallanes y de la Antártica Chilena",
    "TIPO": "Posta de Salud Rural (PSR)",
    "NOMBRE": "Posta de Salud Rural Río Verde",
    "NUMERO": null,
    "DIRECCION": "Caserío de Río Verde",
    "FONO": "95556218",
    "LATITUD": -52.65109,
    "LONGITUD": -71.46342,
    "REGION": "MAGALLANES Y DE LA ANTÁRTICA CHILENA",
    "PROVINCIA": null,
    "COMUNA": "Río Verde"
  },
  {
    "COD_REG": 12,
    "NOM_REG": "Región De Magallanes y de la Antártica Chilena",
    "TIPO": "Posta de Salud Rural (PSR)",
    "NOMBRE": "Posta de Atención Primaria Fernando Ampuero Cheuquel",
    "NUMERO": null,
    "DIRECCION": "Caserío de Villa Tehuenches",
    "FONO": "88292090",
    "LATITUD": -52.42827,
    "LONGITUD": -71.41302,
    "REGION": "MAGALLANES Y DE LA ANTÁRTICA CHILENA",
    "PROVINCIA": null,
    "COMUNA": "Laguna Blanca"
  },
  {
    "COD_REG": 12,
    "NOM_REG": "Región De Magallanes y de la Antártica Chilena",
    "TIPO": "Posta de Salud Rural (PSR)",
    "NOMBRE": "Posta de Salud Rural Punta Delgada",
    "NUMERO": null,
    "DIRECCION": "Sector Punta Delgada",
    "FONO": "90259359",
    "LATITUD": -52.31638,
    "LONGITUD": -69.68958,
    "REGION": "MAGALLANES Y DE LA ANTÁRTICA CHILENA",
    "PROVINCIA": null,
    "COMUNA": "San Gregorio"
  },
  {
    "COD_REG": 12,
    "NOM_REG": "Región De Magallanes y de la Antártica Chilena",
    "TIPO": "Laboratorio Clínico",
    "NOMBRE": "Laboratorio Clínico Biohealth",
    "NUMERO": 781,
    "DIRECCION": "Baquedano 781",
    "FONO": "962170366",
    "LATITUD": -51.731515,
    "LONGITUD": -72.499538,
    "REGION": "MAGALLANES Y DE LA ANTÁRTICA CHILENA",
    "PROVINCIA": null,
    "COMUNA": "Natales"
  },
  {
    "COD_REG": 12,
    "NOM_REG": "Región De Magallanes y de la Antártica Chilena",
    "TIPO": "Hospital",
    "NOMBRE": "Hospital Dr. Augusto Essmann Burgos ( Natales)",
    "NUMERO": 537,
    "DIRECCION": "Ignacio Carrera Pinto 537",
    "FONO": "612291012",
    "LATITUD": -51.7286649,
    "LONGITUD": -72.4809825,
    "REGION": "MAGALLANES Y DE LA ANTÁRTICA CHILENA",
    "PROVINCIA": null,
    "COMUNA": "Natales"
  },
  {
    "COD_REG": 12,
    "NOM_REG": "Región De Magallanes y de la Antártica Chilena",
    "TIPO": "Centro de Salud Familiar (CESFAM)",
    "NOMBRE": "Centro de Salud Familiar Natales",
    "NUMERO": null,
    "DIRECCION": "Javiera Carrera",
    "FONO": "612411000",
    "LATITUD": -51.72835,
    "LONGITUD": -72.48268,
    "REGION": "MAGALLANES Y DE LA ANTÁRTICA CHILENA",
    "PROVINCIA": null,
    "COMUNA": "Natales"
  },
  {
    "COD_REG": 12,
    "NOM_REG": "Región De Magallanes y de la Antártica Chilena",
    "TIPO": "Servicio de Atención Primaria de Urgencia (SAPU)",
    "NOMBRE": "SAPU \"Dr. Juan Lozic Perez\"",
    "NUMERO": null,
    "DIRECCION": "Javiera Carrera",
    "FONO": "612411000",
    "LATITUD": -51.728207,
    "LONGITUD": -72.482647,
    "REGION": "MAGALLANES Y DE LA ANTÁRTICA CHILENA",
    "PROVINCIA": null,
    "COMUNA": "Natales"
  },
  {
    "COD_REG": 12,
    "NOM_REG": "Región De Magallanes y de la Antártica Chilena",
    "TIPO": "Centro de Salud Privado",
    "NOMBRE": "Policlínico de Asociación Chilena de Seguridad",
    "NUMERO": 230,
    "DIRECCION": "Baquedano 230",
    "FONO": null,
    "LATITUD": -51.726161,
    "LONGITUD": -72.501522,
    "REGION": "MAGALLANES Y DE LA ANTÁRTICA CHILENA",
    "PROVINCIA": null,
    "COMUNA": "Natales"
  },
  {
    "COD_REG": 12,
    "NOM_REG": "Región De Magallanes y de la Antártica Chilena",
    "TIPO": "Laboratorio Clínico",
    "NOMBRE": "Laboratorio Clínico Austral",
    "NUMERO": 29,
    "DIRECCION": "Tomás Rogers 29",
    "FONO": "410996",
    "LATITUD": -51.725382,
    "LONGITUD": -72.507691,
    "REGION": "MAGALLANES Y DE LA ANTÁRTICA CHILENA",
    "PROVINCIA": null,
    "COMUNA": "Natales"
  },
  {
    "COD_REG": 12,
    "NOM_REG": "Región De Magallanes y de la Antártica Chilena",
    "TIPO": "Posta de Salud Rural (PSR)",
    "NOMBRE": "Posta de Salud Rural Dorotea",
    "NUMERO": null,
    "DIRECCION": "Caserío de Villa Dorotea",
    "FONO": "63945987",
    "LATITUD": -51.60621,
    "LONGITUD": -72.33238,
    "REGION": "MAGALLANES Y DE LA ANTÁRTICA CHILENA",
    "PROVINCIA": null,
    "COMUNA": "Natales"
  },
  {
    "COD_REG": 12,
    "NOM_REG": "Región De Magallanes y de la Antártica Chilena",
    "TIPO": "Oficina Sanitaria",
    "NOMBRE": "Oficina Sanitaria Dorotea",
    "NUMERO": null,
    "DIRECCION": "Puesto Fronterizo Dorotea",
    "FONO": null,
    "LATITUD": -51.604699,
    "LONGITUD": -72.333088,
    "REGION": "MAGALLANES Y DE LA ANTÁRTICA CHILENA",
    "PROVINCIA": null,
    "COMUNA": "Natales"
  },
  {
    "COD_REG": 12,
    "NOM_REG": "Región De Magallanes y de la Antártica Chilena",
    "TIPO": "Posta de Salud Rural (PSR)",
    "NOMBRE": "Posta de Salud Rural Cerro Castillo (Torres del Paine)",
    "NUMERO": null,
    "DIRECCION": "Caserío de Cerro Castillo",
    "FONO": "95838851",
    "LATITUD": -51.25538,
    "LONGITUD": -72.34362,
    "REGION": "MAGALLANES Y DE LA ANTÁRTICA CHILENA",
    "PROVINCIA": null,
    "COMUNA": "Torres del Paine"
  },
  {
    "COD_REG": 12,
    "NOM_REG": "Región De Magallanes y de la Antártica Chilena",
    "TIPO": "Posta de Salud Rural (PSR)",
    "NOMBRE": "Posta de Salud Rural Puerto Edén",
    "NUMERO": null,
    "DIRECCION": "Caserío de Villa Puerto Edén",
    "FONO": "57380761",
    "LATITUD": -49.12549,
    "LONGITUD": -74.41271,
    "REGION": "MAGALLANES Y DE LA ANTÁRTICA CHILENA",
    "PROVINCIA": null,
    "COMUNA": "Natales"
  },
  {
    "COD_REG": 11,
    "NOM_REG": "Región De Aysén del General Carlos Ibañez del Campo",
    "TIPO": "Posta de Salud Rural (PSR)",
    "NOMBRE": "Posta de Salud Rural Villa O'Higgins",
    "NUMERO": null,
    "DIRECCION": "Aldea de O'Higgins",
    "FONO": null,
    "LATITUD": -48.469779,
    "LONGITUD": -72.560767,
    "REGION": "AYSÉN DEL GENERAL CARLOS IBAÑEZ DEL CAMPO",
    "PROVINCIA": null,
    "COMUNA": "O'Higgins"
  },
  {
    "COD_REG": 11,
    "NOM_REG": "Región De Aysén del General Carlos Ibañez del Campo",
    "TIPO": "Posta de Salud Rural (PSR)",
    "NOMBRE": "Posta de Salud Rural Caleta Tortel",
    "NUMERO": null,
    "DIRECCION": "Aldea de Tortel",
    "FONO": null,
    "LATITUD": -47.79589,
    "LONGITUD": -73.5323,
    "REGION": "AYSÉN DEL GENERAL CARLOS IBAÑEZ DEL CAMPO",
    "PROVINCIA": null,
    "COMUNA": "Tortel"
  },
  {
    "COD_REG": 11,
    "NOM_REG": "Región De Aysén del General Carlos Ibañez del Campo",
    "TIPO": "Hospital",
    "NOMBRE": "Hospital Lord Cochrane",
    "NUMERO": null,
    "DIRECCION": "Bernardo O'Higgins",
    "FONO": "672261331",
    "LATITUD": -47.25557,
    "LONGITUD": -72.57073,
    "REGION": "AYSÉN DEL GENERAL CARLOS IBAÑEZ DEL CAMPO",
    "PROVINCIA": null,
    "COMUNA": "Cochrane"
  },
  {
    "COD_REG": 11,
    "NOM_REG": "Región De Aysén del General Carlos Ibañez del Campo",
    "TIPO": "Posta de Salud Rural (PSR)",
    "NOMBRE": "Posta de Salud Rural Puerto Bertrand",
    "NUMERO": null,
    "DIRECCION": "Caserío de Puerto Bertrand",
    "FONO": null,
    "LATITUD": -47.01695,
    "LONGITUD": -72.82942,
    "REGION": "AYSÉN DEL GENERAL CARLOS IBAÑEZ DEL CAMPO",
    "PROVINCIA": null,
    "COMUNA": "Chile Chico"
  },
  {
    "COD_REG": 11,
    "NOM_REG": "Región De Aysén del General Carlos Ibañez del Campo",
    "TIPO": "Posta de Salud Rural (PSR)",
    "NOMBRE": "Posta de Salud Rural Bernardita Zuñiga Vargas",
    "NUMERO": null,
    "DIRECCION": "Aldea de Puerto Guadal",
    "FONO": null,
    "LATITUD": -46.84436,
    "LONGITUD": -72.70212,
    "REGION": "AYSÉN DEL GENERAL CARLOS IBAÑEZ DEL CAMPO",
    "PROVINCIA": null,
    "COMUNA": "Chile Chico"
  },
  {
    "COD_REG": 11,
    "NOM_REG": "Región De Aysén del General Carlos Ibañez del Campo",
    "TIPO": "Posta de Salud Rural (PSR)",
    "NOMBRE": "Posta de Salud Rural Mallín Grande",
    "NUMERO": null,
    "DIRECCION": "Caserío de Mallín Grande",
    "FONO": null,
    "LATITUD": -46.72719,
    "LONGITUD": -72.46432,
    "REGION": "AYSÉN DEL GENERAL CARLOS IBAÑEZ DEL CAMPO",
    "PROVINCIA": null,
    "COMUNA": "Chile Chico"
  },
  {
    "COD_REG": 11,
    "NOM_REG": "Región De Aysén del General Carlos Ibañez del Campo",
    "TIPO": "Posta de Salud Rural (PSR)",
    "NOMBRE": "Posta de Salud Rural Río Tranquilo",
    "NUMERO": null,
    "DIRECCION": "Aldea de Río Tranquilo",
    "FONO": null,
    "LATITUD": -46.62364,
    "LONGITUD": -72.67736,
    "REGION": "AYSÉN DEL GENERAL CARLOS IBAÑEZ DEL CAMPO",
    "PROVINCIA": null,
    "COMUNA": "Río Ibáñez"
  },
  {
    "COD_REG": 11,
    "NOM_REG": "Región De Aysén del General Carlos Ibañez del Campo",
    "TIPO": "Posta de Salud Rural (PSR)",
    "NOMBRE": "Posta de Salud Rural Puerto Sánchez",
    "NUMERO": null,
    "DIRECCION": "Caserío de Puerto Sánchez",
    "FONO": null,
    "LATITUD": -46.59205,
    "LONGITUD": -72.57875,
    "REGION": "AYSÉN DEL GENERAL CARLOS IBAÑEZ DEL CAMPO",
    "PROVINCIA": null,
    "COMUNA": "Río Ibáñez"
  },
  {
    "COD_REG": 11,
    "NOM_REG": "Región De Aysén del General Carlos Ibañez del Campo",
    "TIPO": "Hospital",
    "NOMBRE": "Hospital Dr. Leopoldo Ortega Rodríguez (Chile Chico)",
    "NUMERO": 275,
    "DIRECCION": "Lautaro 275",
    "FONO": "672261411",
    "LATITUD": -46.54166,
    "LONGITUD": -71.7251,
    "REGION": "AYSÉN DEL GENERAL CARLOS IBAÑEZ DEL CAMPO",
    "PROVINCIA": null,
    "COMUNA": "Chile Chico"
  },
  {
    "COD_REG": 11,
    "NOM_REG": "Región De Aysén del General Carlos Ibañez del Campo",
    "TIPO": "Posta de Salud Rural (PSR)",
    "NOMBRE": "Posta de Salud Rural Bahía Murta",
    "NUMERO": null,
    "DIRECCION": "Aldea de Bahía Murta",
    "FONO": null,
    "LATITUD": -46.458216,
    "LONGITUD": -72.673995,
    "REGION": "AYSÉN DEL GENERAL CARLOS IBAÑEZ DEL CAMPO",
    "PROVINCIA": null,
    "COMUNA": "Río Ibáñez"
  },
  {
    "COD_REG": 11,
    "NOM_REG": "Región De Aysén del General Carlos Ibañez del Campo",
    "TIPO": "Posta de Salud Rural (PSR)",
    "NOMBRE": "Posta de Salud Rural Puerto Ibáñez",
    "NUMERO": null,
    "DIRECCION": "Aldea de Puerto Ibáñez",
    "FONO": null,
    "LATITUD": -46.29201,
    "LONGITUD": -71.93383,
    "REGION": "AYSÉN DEL GENERAL CARLOS IBAÑEZ DEL CAMPO",
    "PROVINCIA": null,
    "COMUNA": "Río Ibáñez"
  },
  {
    "COD_REG": 11,
    "NOM_REG": "Región De Aysén del General Carlos Ibañez del Campo",
    "TIPO": "Posta de Salud Rural (PSR)",
    "NOMBRE": "Posta de Salud Rural Cerro Castillo (Río Ibáñez)",
    "NUMERO": null,
    "DIRECCION": "Aldea de Cerro Castillo",
    "FONO": null,
    "LATITUD": -46.12091,
    "LONGITUD": -72.1607,
    "REGION": "AYSÉN DEL GENERAL CARLOS IBAÑEZ DEL CAMPO",
    "PROVINCIA": null,
    "COMUNA": "Río Ibáñez"
  },
  {
    "COD_REG": 11,
    "NOM_REG": "Región De Aysén del General Carlos Ibañez del Campo",
    "TIPO": "Posta de Salud Rural (PSR)",
    "NOMBRE": "Posta de Salud Rural Balmaceda",
    "NUMERO": null,
    "DIRECCION": "Aldea de Balmaceda",
    "FONO": null,
    "LATITUD": -45.90909,
    "LONGITUD": -71.69802,
    "REGION": "AYSÉN DEL GENERAL CARLOS IBAÑEZ DEL CAMPO",
    "PROVINCIA": null,
    "COMUNA": "Coyhaique"
  },
  {
    "COD_REG": 11,
    "NOM_REG": "Región De Aysén del General Carlos Ibañez del Campo",
    "TIPO": "Posta de Salud Rural (PSR)",
    "NOMBRE": "Posta de Salud Rural El Blanco",
    "NUMERO": null,
    "DIRECCION": "Aldea de el Blanco",
    "FONO": null,
    "LATITUD": -45.81443,
    "LONGITUD": -71.91623,
    "REGION": "AYSÉN DEL GENERAL CARLOS IBAÑEZ DEL CAMPO",
    "PROVINCIA": null,
    "COMUNA": "Coyhaique"
  },
  {
    "COD_REG": 11,
    "NOM_REG": "Región De Aysén del General Carlos Ibañez del Campo",
    "TIPO": "Posta de Salud Rural (PSR)",
    "NOMBRE": "Posta de Salud Rural Valle Simpson",
    "NUMERO": null,
    "DIRECCION": "Aldea de Valle Simpson",
    "FONO": null,
    "LATITUD": -45.71442,
    "LONGITUD": -72.08107,
    "REGION": "AYSÉN DEL GENERAL CARLOS IBAÑEZ DEL CAMPO",
    "PROVINCIA": null,
    "COMUNA": "Coyhaique"
  },
  {
    "COD_REG": 11,
    "NOM_REG": "Región De Aysén del General Carlos Ibañez del Campo",
    "TIPO": "Posta de Salud Rural (PSR)",
    "NOMBRE": "Posta de Salud Rural Lago Atravesado",
    "NUMERO": null,
    "DIRECCION": "Sector Lago Atravesado",
    "FONO": null,
    "LATITUD": -45.66848,
    "LONGITUD": -72.21204,
    "REGION": "AYSÉN DEL GENERAL CARLOS IBAÑEZ DEL CAMPO",
    "PROVINCIA": null,
    "COMUNA": "Coyhaique"
  },
  {
    "COD_REG": 11,
    "NOM_REG": "Región De Aysén del General Carlos Ibañez del Campo",
    "TIPO": "Consultorio General Urbano (CGU)",
    "NOMBRE": "CESFAM  Víctor Domingo Silva",
    "NUMERO": null,
    "DIRECCION": "Alejandro Gutiérrez",
    "FONO": "800500977",
    "LATITUD": -45.58272,
    "LONGITUD": -72.06043,
    "REGION": "AYSÉN DEL GENERAL CARLOS IBAÑEZ DEL CAMPO",
    "PROVINCIA": null,
    "COMUNA": "Coyhaique"
  },
  {
    "COD_REG": 11,
    "NOM_REG": "Región De Aysén del General Carlos Ibañez del Campo",
    "TIPO": "Centro de Salud Privado",
    "NOMBRE": "Policlínico del Trabajador Coyhaique",
    "NUMERO": 1018,
    "DIRECCION": "Ogana 1018",
    "FONO": "672232710",
    "LATITUD": -45.580609,
    "LONGITUD": -72.073614,
    "REGION": "AYSÉN DEL GENERAL CARLOS IBAÑEZ DEL CAMPO",
    "PROVINCIA": null,
    "COMUNA": "Coyhaique"
  },
  {
    "COD_REG": 11,
    "NOM_REG": "Región De Aysén del General Carlos Ibañez del Campo",
    "TIPO": "Servicio de Atención Primaria de Urgencia (SAPU)",
    "NOMBRE": "SAPU Dr. Alejandro Gutiérrez",
    "NUMERO": 1955,
    "DIRECCION": "Francisco Bilbao 1955",
    "FONO": "672671263",
    "LATITUD": -45.579991,
    "LONGITUD": -72.046529,
    "REGION": "AYSÉN DEL GENERAL CARLOS IBAÑEZ DEL CAMPO",
    "PROVINCIA": null,
    "COMUNA": "Coyhaique"
  },
  {
    "COD_REG": 11,
    "NOM_REG": "Región De Aysén del General Carlos Ibañez del Campo",
    "TIPO": "Consultorio General Urbano (CGU)",
    "NOMBRE": "Consultorio Alejandro Gutiérrez",
    "NUMERO": null,
    "DIRECCION": "Bilbao",
    "FONO": "800500976",
    "LATITUD": -45.57986,
    "LONGITUD": -72.04638,
    "REGION": "AYSÉN DEL GENERAL CARLOS IBAÑEZ DEL CAMPO",
    "PROVINCIA": null,
    "COMUNA": "Coyhaique"
  },
  {
    "COD_REG": 11,
    "NOM_REG": "Región De Aysén del General Carlos Ibañez del Campo",
    "TIPO": "Centro Comunitario de Salud Mental  (COSAM)",
    "NOMBRE": "COSAM Coyhaique",
    "NUMERO": 1435,
    "DIRECCION": "Freire 1435",
    "FONO": "672261403",
    "LATITUD": -45.578087,
    "LONGITUD": -72.055291,
    "REGION": "AYSÉN DEL GENERAL CARLOS IBAÑEZ DEL CAMPO",
    "PROVINCIA": null,
    "COMUNA": "Coyhaique"
  },
  {
    "COD_REG": 11,
    "NOM_REG": "Región De Aysén del General Carlos Ibañez del Campo",
    "TIPO": "Centro Comunitario de Salud Familiar (CECOSF)",
    "NOMBRE": "Centro Comunitario de Salud Familiar Alejandro Gutierrez",
    "NUMERO": 63,
    "DIRECCION": "Lautaro 63",
    "FONO": null,
    "LATITUD": -45.57408,
    "LONGITUD": -72.07655,
    "REGION": "AYSÉN DEL GENERAL CARLOS IBAÑEZ DEL CAMPO",
    "PROVINCIA": null,
    "COMUNA": "Coyhaique"
  },
  {
    "COD_REG": 11,
    "NOM_REG": "Región De Aysén del General Carlos Ibañez del Campo",
    "TIPO": "Vacunatorio",
    "NOMBRE": "Vacunatorio - Clínica Bilbao",
    "NUMERO": 449,
    "DIRECCION": "Francisco Bilbao 449",
    "FONO": "95406218",
    "LATITUD": -45.573014,
    "LONGITUD": -72.06877,
    "REGION": "AYSÉN DEL GENERAL CARLOS IBAÑEZ DEL CAMPO",
    "PROVINCIA": null,
    "COMUNA": "Coyhaique"
  },
  {
    "COD_REG": 11,
    "NOM_REG": "Región De Aysén del General Carlos Ibañez del Campo",
    "TIPO": "Centro de Salud Privado",
    "NOMBRE": "Centro Médico y Dental Clínica Bilbao",
    "NUMERO": 449,
    "DIRECCION": "Francisco Bilbao 449",
    "FONO": "672583126",
    "LATITUD": -45.573005,
    "LONGITUD": -72.068789,
    "REGION": "AYSÉN DEL GENERAL CARLOS IBAÑEZ DEL CAMPO",
    "PROVINCIA": null,
    "COMUNA": "Coyhaique"
  },
  {
    "COD_REG": 11,
    "NOM_REG": "Región De Aysén del General Carlos Ibañez del Campo",
    "TIPO": "Laboratorio Clínico",
    "NOMBRE": "Laboratorio Clínico Diagnóstico Análisis Coyhaique",
    "NUMERO": 20,
    "DIRECCION": "Eusebio Lillo, Piso 2 20",
    "FONO": "672574130",
    "LATITUD": -45.57109,
    "LONGITUD": -72.064617,
    "REGION": "AYSÉN DEL GENERAL CARLOS IBAÑEZ DEL CAMPO",
    "PROVINCIA": null,
    "COMUNA": "Coyhaique"
  },
  {
    "COD_REG": 11,
    "NOM_REG": "Región De Aysén del General Carlos Ibañez del Campo",
    "TIPO": "Centro de Salud Privado",
    "NOMBRE": "Centro de Salud Mutual CChC Coyhaique",
    "NUMERO": 20,
    "DIRECCION": "Eusebio Lillo 20",
    "FONO": "672232777",
    "LATITUD": -45.571075,
    "LONGITUD": -72.064675,
    "REGION": "AYSÉN DEL GENERAL CARLOS IBAÑEZ DEL CAMPO",
    "PROVINCIA": null,
    "COMUNA": "Coyhaique"
  },
  {
    "COD_REG": 11,
    "NOM_REG": "Región De Aysén del General Carlos Ibañez del Campo",
    "TIPO": "Laboratorio Clínico",
    "NOMBRE": "Laboratorio Clínico Thomas Ltda.",
    "NUMERO": 228,
    "DIRECCION": "Condell 228",
    "FONO": "672210051",
    "LATITUD": -45.570648,
    "LONGITUD": -72.066873,
    "REGION": "AYSÉN DEL GENERAL CARLOS IBAÑEZ DEL CAMPO",
    "PROVINCIA": null,
    "COMUNA": "Coyhaique"
  },
  {
    "COD_REG": 11,
    "NOM_REG": "Región De Aysén del General Carlos Ibañez del Campo",
    "TIPO": "Centro de Salud Privado",
    "NOMBRE": "Centro Médico y Dental XI Zona Aysén del General Carlos Ibáñez del Campo",
    "NUMERO": 534,
    "DIRECCION": "Baquedano 534",
    "FONO": "672567034",
    "LATITUD": -45.569792,
    "LONGITUD": -72.063939,
    "REGION": "AYSÉN DEL GENERAL CARLOS IBAÑEZ DEL CAMPO",
    "PROVINCIA": null,
    "COMUNA": "Coyhaique"
  },
  {
    "COD_REG": 11,
    "NOM_REG": "Región De Aysén del General Carlos Ibañez del Campo",
    "TIPO": "Vacunatorio",
    "NOMBRE": "Servicios de Enfermería y Salud Camila Barrueto",
    "NUMERO": 328,
    "DIRECCION": "21 de Mayo, Piso 2 328",
    "FONO": null,
    "LATITUD": -45.568717,
    "LONGITUD": -72.0674,
    "REGION": "AYSÉN DEL GENERAL CARLOS IBAÑEZ DEL CAMPO",
    "PROVINCIA": null,
    "COMUNA": "Coyhaique"
  },
  {
    "COD_REG": 11,
    "NOM_REG": "Región De Aysén del General Carlos Ibañez del Campo",
    "TIPO": "Hospital",
    "NOMBRE": "Hospital Regional de Coyhaique",
    "NUMERO": 68,
    "DIRECCION": "Jorge Ibar 68",
    "FONO": "672262003",
    "LATITUD": -45.568399,
    "LONGITUD": -72.073423,
    "REGION": "AYSÉN DEL GENERAL CARLOS IBAÑEZ DEL CAMPO",
    "PROVINCIA": null,
    "COMUNA": "Coyhaique"
  },
  {
    "COD_REG": 11,
    "NOM_REG": "Región De Aysén del General Carlos Ibañez del Campo",
    "TIPO": "Unidad de Procedimientos Móvil",
    "NOMBRE": "Clínica Dental Móvil Simple. Pat.  Movil: ZBA-651",
    "NUMERO": 168,
    "DIRECCION": "Dr. Jorge Ibar 168",
    "FONO": null,
    "LATITUD": -45.567569,
    "LONGITUD": -72.073585,
    "REGION": "AYSÉN DEL GENERAL CARLOS IBAÑEZ DEL CAMPO",
    "PROVINCIA": null,
    "COMUNA": "Coyhaique"
  },
  {
    "COD_REG": 11,
    "NOM_REG": "Región De Aysén del General Carlos Ibañez del Campo",
    "TIPO": "Unidad de Procedimientos Móvil",
    "NOMBRE": "Mamógrafo Digital - Ecotomógrafo Móvil. Pat. PX1462-2 (SS Aysén)",
    "NUMERO": 168,
    "DIRECCION": "Dr. Jorge Ibar 168",
    "FONO": "672216443",
    "LATITUD": -45.567569,
    "LONGITUD": -72.073585,
    "REGION": "AYSÉN DEL GENERAL CARLOS IBAÑEZ DEL CAMPO",
    "PROVINCIA": null,
    "COMUNA": "Coyhaique"
  },
  {
    "COD_REG": 11,
    "NOM_REG": "Región De Aysén del General Carlos Ibañez del Campo",
    "TIPO": "Unidad de Salud Funcionarios",
    "NOMBRE": "Unidad de Salud Funcionario  S.S Aisén",
    "NUMERO": 168,
    "DIRECCION": "Dr Jorge Ibar 168",
    "FONO": "672216443",
    "LATITUD": -45.567569,
    "LONGITUD": -72.073585,
    "REGION": "AYSÉN DEL GENERAL CARLOS IBAÑEZ DEL CAMPO",
    "PROVINCIA": null,
    "COMUNA": "Coyhaique"
  },
  {
    "COD_REG": 11,
    "NOM_REG": "Región De Aysén del General Carlos Ibañez del Campo",
    "TIPO": "Dirección Servicio de Salud",
    "NOMBRE": "Actividades gestionadas por la Dirección del Servicio para apoyo de la Red (S.S de Aysén)",
    "NUMERO": 168,
    "DIRECCION": "Dr Jorge Ibar 168",
    "FONO": "672216443",
    "LATITUD": -45.567569,
    "LONGITUD": -72.073585,
    "REGION": "AYSÉN DEL GENERAL CARLOS IBAÑEZ DEL CAMPO",
    "PROVINCIA": null,
    "COMUNA": "Coyhaique"
  },
  {
    "COD_REG": 11,
    "NOM_REG": "Región De Aysén del General Carlos Ibañez del Campo",
    "TIPO": "Programa de Reparación y Atención Integral de Salud (PRAIS)",
    "NOMBRE": "PRAIS (S.S Aisén)",
    "NUMERO": 168,
    "DIRECCION": "Dr Jorge Ibar 168",
    "FONO": "672216443",
    "LATITUD": -45.567569,
    "LONGITUD": -72.073585,
    "REGION": "AYSÉN DEL GENERAL CARLOS IBAÑEZ DEL CAMPO",
    "PROVINCIA": null,
    "COMUNA": "Coyhaique"
  },
  {
    "COD_REG": 11,
    "NOM_REG": "Región De Aysén del General Carlos Ibañez del Campo",
    "TIPO": "Centro de Salud Privado",
    "NOMBRE": "Centro Clínico Militar Coyhaique",
    "NUMERO": 150,
    "DIRECCION": "Ejército 150",
    "FONO": "672210916",
    "LATITUD": -45.565254,
    "LONGITUD": -72.06796,
    "REGION": "AYSÉN DEL GENERAL CARLOS IBAÑEZ DEL CAMPO",
    "PROVINCIA": null,
    "COMUNA": "Coyhaique"
  },
  {
    "COD_REG": 11,
    "NOM_REG": "Región De Aysén del General Carlos Ibañez del Campo",
    "TIPO": "Centro de Salud Privado",
    "NOMBRE": "Instituto Teletón Aysén",
    "NUMERO": 567,
    "DIRECCION": "Ejercito 567",
    "FONO": "672243700",
    "LATITUD": -45.564525,
    "LONGITUD": -72.074413,
    "REGION": "AYSÉN DEL GENERAL CARLOS IBAÑEZ DEL CAMPO",
    "PROVINCIA": null,
    "COMUNA": "Coyhaique"
  },
  {
    "COD_REG": 11,
    "NOM_REG": "Región De Aysén del General Carlos Ibañez del Campo",
    "TIPO": "Centro de Salud Privado",
    "NOMBRE": "Centro de Salud Mutual CChC Puerto Chacabuco",
    "NUMERO": 270,
    "DIRECCION": "O'Higgins 270",
    "FONO": "672351129",
    "LATITUD": -45.461797,
    "LONGITUD": -72.818164,
    "REGION": "AYSÉN DEL GENERAL CARLOS IBAÑEZ DEL CAMPO",
    "PROVINCIA": null,
    "COMUNA": "Aisén"
  },
  {
    "COD_REG": 11,
    "NOM_REG": "Región De Aysén del General Carlos Ibañez del Campo",
    "TIPO": "Centro Comunitario de Salud Familiar (CECOSF)",
    "NOMBRE": "Centro Comunitario de Salud Familiar Puerto Chacabuco",
    "NUMERO": 331,
    "DIRECCION": "O\"higgins, Puerto Chacabuco 331",
    "FONO": "672351388",
    "LATITUD": -45.461686,
    "LONGITUD": -72.816539,
    "REGION": "AYSÉN DEL GENERAL CARLOS IBAÑEZ DEL CAMPO",
    "PROVINCIA": null,
    "COMUNA": "Aisén"
  },
  {
    "COD_REG": 11,
    "NOM_REG": "Región De Aysén del General Carlos Ibañez del Campo",
    "TIPO": "Centro Comunitario de Salud Familiar (CECOSF)",
    "NOMBRE": "Centro Comunitario de Salud Familiar Ribera Sur",
    "NUMERO": null,
    "DIRECCION": "Lago Portales",
    "FONO": "672261600",
    "LATITUD": -45.41131,
    "LONGITUD": -72.69291,
    "REGION": "AYSÉN DEL GENERAL CARLOS IBAÑEZ DEL CAMPO",
    "PROVINCIA": null,
    "COMUNA": "Aisén"
  },
  {
    "COD_REG": 11,
    "NOM_REG": "Región De Aysén del General Carlos Ibañez del Campo",
    "TIPO": "Hospital",
    "NOMBRE": "Hospital de Puerto Aysén",
    "NUMERO": 180,
    "DIRECCION": "Yussef Laibe 180",
    "FONO": "672262830",
    "LATITUD": -45.408518,
    "LONGITUD": -72.683815,
    "REGION": "AYSÉN DEL GENERAL CARLOS IBAÑEZ DEL CAMPO",
    "PROVINCIA": null,
    "COMUNA": "Aisén"
  },
  {
    "COD_REG": 11,
    "NOM_REG": "Región De Aysén del General Carlos Ibañez del Campo",
    "TIPO": "Clínica",
    "NOMBRE": "Clínica de Trabajador AChS",
    "NUMERO": null,
    "DIRECCION": "Circunvalación",
    "FONO": "672336680",
    "LATITUD": -45.407546,
    "LONGITUD": -72.684468,
    "REGION": "AYSÉN DEL GENERAL CARLOS IBAÑEZ DEL CAMPO",
    "PROVINCIA": null,
    "COMUNA": "Aisén"
  },
  {
    "COD_REG": 11,
    "NOM_REG": "Región De Aysén del General Carlos Ibañez del Campo",
    "TIPO": "Centro de Salud Familiar (CESFAM)",
    "NOMBRE": "Centro de Salud Familiar Puerto Aysen",
    "NUMERO": 1035,
    "DIRECCION": "Eleuterio Ramirez 1035",
    "FONO": "672261151",
    "LATITUD": -45.405278,
    "LONGITUD": -72.702222,
    "REGION": "AYSÉN DEL GENERAL CARLOS IBAÑEZ DEL CAMPO",
    "PROVINCIA": null,
    "COMUNA": "Aisén"
  },
  {
    "COD_REG": 11,
    "NOM_REG": "Región De Aysén del General Carlos Ibañez del Campo",
    "TIPO": "Posta de Salud Rural (PSR)",
    "NOMBRE": "Posta de Salud Rural Villa Ortega",
    "NUMERO": null,
    "DIRECCION": "Caserío de Villa Ortega",
    "FONO": null,
    "LATITUD": -45.37192,
    "LONGITUD": -71.99313,
    "REGION": "AYSÉN DEL GENERAL CARLOS IBAÑEZ DEL CAMPO",
    "PROVINCIA": null,
    "COMUNA": "Coyhaique"
  },
  {
    "COD_REG": 11,
    "NOM_REG": "Región De Aysén del General Carlos Ibañez del Campo",
    "TIPO": "Posta de Salud Rural (PSR)",
    "NOMBRE": "Posta de Salud Rural Ñirehuao",
    "NUMERO": null,
    "DIRECCION": "Caserío de Ñireguao",
    "FONO": null,
    "LATITUD": -45.26776,
    "LONGITUD": -71.71719,
    "REGION": "AYSÉN DEL GENERAL CARLOS IBAÑEZ DEL CAMPO",
    "PROVINCIA": null,
    "COMUNA": "Coyhaique"
  },
  {
    "COD_REG": 11,
    "NOM_REG": "Región De Aysén del General Carlos Ibañez del Campo",
    "TIPO": "Centro Comunitario de Salud Familiar (CECOSF)",
    "NOMBRE": "Centro Comunitario de Salud Familiar  Villa Mañihuales",
    "NUMERO": 134,
    "DIRECCION": "Arturo Prat 134",
    "FONO": "672261697",
    "LATITUD": -45.17201,
    "LONGITUD": -72.14587,
    "REGION": "AYSÉN DEL GENERAL CARLOS IBAÑEZ DEL CAMPO",
    "PROVINCIA": null,
    "COMUNA": "Aisén"
  },
  {
    "COD_REG": 11,
    "NOM_REG": "Región De Aysén del General Carlos Ibañez del Campo",
    "TIPO": "Posta de Salud Rural (PSR)",
    "NOMBRE": "Posta de Salud Rural Puerto Aguirre",
    "NUMERO": null,
    "DIRECCION": "Aldea de Puerto Aguirre",
    "FONO": null,
    "LATITUD": -45.16343,
    "LONGITUD": -73.52313,
    "REGION": "AYSÉN DEL GENERAL CARLOS IBAÑEZ DEL CAMPO",
    "PROVINCIA": null,
    "COMUNA": "Aisén"
  },
  {
    "COD_REG": 11,
    "NOM_REG": "Región De Aysén del General Carlos Ibañez del Campo",
    "TIPO": "Posta de Salud Rural (PSR)",
    "NOMBRE": "Posta de Salud Rural Caleta Andrade",
    "NUMERO": null,
    "DIRECCION": "Aldea de Caleta Andrade",
    "FONO": null,
    "LATITUD": -45.15335,
    "LONGITUD": -73.51016,
    "REGION": "AYSÉN DEL GENERAL CARLOS IBAÑEZ DEL CAMPO",
    "PROVINCIA": null,
    "COMUNA": "Aisén"
  },
  {
    "COD_REG": 11,
    "NOM_REG": "Región De Aysén del General Carlos Ibañez del Campo",
    "TIPO": "Posta de Salud Rural (PSR)",
    "NOMBRE": "Posta de Salud Rural El Gato",
    "NUMERO": null,
    "DIRECCION": "Sector El Gato",
    "FONO": null,
    "LATITUD": -45.14893,
    "LONGITUD": -71.87475,
    "REGION": "AYSÉN DEL GENERAL CARLOS IBAÑEZ DEL CAMPO",
    "PROVINCIA": null,
    "COMUNA": "Coyhaique"
  },
  {
    "COD_REG": 11,
    "NOM_REG": "Región De Aysén del General Carlos Ibañez del Campo",
    "TIPO": "Posta de Salud Rural (PSR)",
    "NOMBRE": "Posta de Salud Rural Villa Amengual",
    "NUMERO": null,
    "DIRECCION": "Caserío Villa Amengual",
    "FONO": null,
    "LATITUD": -44.74812,
    "LONGITUD": -72.21031,
    "REGION": "AYSÉN DEL GENERAL CARLOS IBAÑEZ DEL CAMPO",
    "PROVINCIA": null,
    "COMUNA": "Lago Verde"
  },
  {
    "COD_REG": 11,
    "NOM_REG": "Región De Aysén del General Carlos Ibañez del Campo",
    "TIPO": "Hospital",
    "NOMBRE": "Hospital Dr. Jorge Ibar Bruce (Cisnes)",
    "NUMERO": 869,
    "DIRECCION": "Rafael Sotomayor 869",
    "FONO": "672261302",
    "LATITUD": -44.72603,
    "LONGITUD": -72.68078,
    "REGION": "AYSÉN DEL GENERAL CARLOS IBAÑEZ DEL CAMPO",
    "PROVINCIA": null,
    "COMUNA": "Cisnes"
  },
  {
    "COD_REG": 11,
    "NOM_REG": "Región De Aysén del General Carlos Ibañez del Campo",
    "TIPO": "Posta de Salud Rural (PSR)",
    "NOMBRE": "Posta de Salud Rural La Tapera",
    "NUMERO": null,
    "DIRECCION": "Caserío Villa La Tapera",
    "FONO": null,
    "LATITUD": -44.6443,
    "LONGITUD": -71.67117,
    "REGION": "AYSÉN DEL GENERAL CARLOS IBAÑEZ DEL CAMPO",
    "PROVINCIA": null,
    "COMUNA": "Lago Verde"
  },
  {
    "COD_REG": 11,
    "NOM_REG": "Región De Aysén del General Carlos Ibañez del Campo",
    "TIPO": "Posta de Salud Rural (PSR)",
    "NOMBRE": "Posta de Salud Rural Puyuhuapi",
    "NUMERO": null,
    "DIRECCION": "Aldea Puerto Puyuhuapi",
    "FONO": null,
    "LATITUD": -44.32358,
    "LONGITUD": -72.5573,
    "REGION": "AYSÉN DEL GENERAL CARLOS IBAÑEZ DEL CAMPO",
    "PROVINCIA": null,
    "COMUNA": "Cisnes"
  },
  {
    "COD_REG": 11,
    "NOM_REG": "Región De Aysén del General Carlos Ibañez del Campo",
    "TIPO": "Posta de Salud Rural (PSR)",
    "NOMBRE": "Posta de Salud Rural Isla Toto",
    "NUMERO": null,
    "DIRECCION": "Sector Isla Toto",
    "FONO": null,
    "LATITUD": -44.25715,
    "LONGITUD": -73.208813,
    "REGION": "AYSÉN DEL GENERAL CARLOS IBAÑEZ DEL CAMPO",
    "PROVINCIA": null,
    "COMUNA": "Cisnes"
  },
  {
    "COD_REG": 11,
    "NOM_REG": "Región De Aysén del General Carlos Ibañez del Campo",
    "TIPO": "Posta de Salud Rural (PSR)",
    "NOMBRE": "Posta de Salud Rural Lago Verde",
    "NUMERO": null,
    "DIRECCION": "Aldea de Lago Verde",
    "FONO": null,
    "LATITUD": -44.24014,
    "LONGITUD": -71.8513,
    "REGION": "AYSÉN DEL GENERAL CARLOS IBAÑEZ DEL CAMPO",
    "PROVINCIA": null,
    "COMUNA": "Lago Verde"
  },
  {
    "COD_REG": 11,
    "NOM_REG": "Región De Aysén del General Carlos Ibañez del Campo",
    "TIPO": "Posta de Salud Rural (PSR)",
    "NOMBRE": "Posta de Salud Rural Melimoyu",
    "NUMERO": null,
    "DIRECCION": "Caserío de Melimoyu",
    "FONO": null,
    "LATITUD": -44.10994,
    "LONGITUD": -73.11775,
    "REGION": "AYSÉN DEL GENERAL CARLOS IBAÑEZ DEL CAMPO",
    "PROVINCIA": null,
    "COMUNA": "Cisnes"
  },
  {
    "COD_REG": 11,
    "NOM_REG": "Región De Aysén del General Carlos Ibañez del Campo",
    "TIPO": "Centro de Salud Familiar (CESFAM)",
    "NOMBRE": "Centro de Salud Familiar La Junta",
    "NUMERO": null,
    "DIRECCION": "Diego Portales, La Junta",
    "FONO": "973983674",
    "LATITUD": -43.97125,
    "LONGITUD": -72.40613,
    "REGION": "AYSÉN DEL GENERAL CARLOS IBAÑEZ DEL CAMPO",
    "PROVINCIA": null,
    "COMUNA": "Cisnes"
  },
  {
    "COD_REG": 11,
    "NOM_REG": "Región De Aysén del General Carlos Ibañez del Campo",
    "TIPO": "Posta de Salud Rural (PSR)",
    "NOMBRE": "Posta de Salud Rural Melinka",
    "NUMERO": null,
    "DIRECCION": "Pueblo de Melinka",
    "FONO": null,
    "LATITUD": -43.896661,
    "LONGITUD": -73.745897,
    "REGION": "AYSÉN DEL GENERAL CARLOS IBAÑEZ DEL CAMPO",
    "PROVINCIA": null,
    "COMUNA": "Guaitecas"
  },
  {
    "COD_REG": 11,
    "NOM_REG": "Región De Aysén del General Carlos Ibañez del Campo",
    "TIPO": "Posta de Salud Rural (PSR)",
    "NOMBRE": "Posta de Salud Rural Raúl Marín Balmaceda",
    "NUMERO": null,
    "DIRECCION": "Caserío Raúl Marín Balmaceda",
    "FONO": null,
    "LATITUD": -43.773497,
    "LONGITUD": -72.954818,
    "REGION": "AYSÉN DEL GENERAL CARLOS IBAÑEZ DEL CAMPO",
    "PROVINCIA": null,
    "COMUNA": "Cisnes"
  },
  {
    "COD_REG": 10,
    "NOM_REG": "Región De Los Lagos",
    "TIPO": "Posta de Salud Rural (PSR)",
    "NOMBRE": "Posta de Salud Rural El Malito",
    "NUMERO": null,
    "DIRECCION": "Ruta CH 235 - Km.",
    "FONO": "65-2741220",
    "LATITUD": -43.61861,
    "LONGITUD": -72.00663,
    "REGION": "LOS LAGOS",
    "PROVINCIA": null,
    "COMUNA": "Palena"
  },
  {
    "COD_REG": 10,
    "NOM_REG": "Región De Los Lagos",
    "TIPO": "Hospital",
    "NOMBRE": "Hospital de Palena",
    "NUMERO": 641,
    "DIRECCION": "Pudeto 641",
    "FONO": "652741322",
    "LATITUD": -43.61765,
    "LONGITUD": -71.80821,
    "REGION": "LOS LAGOS",
    "PROVINCIA": null,
    "COMUNA": "Palena"
  },
  {
    "COD_REG": 10,
    "NOM_REG": "Región De Los Lagos",
    "TIPO": "Posta de Salud Rural (PSR)",
    "NOMBRE": "Posta de Salud Rural Puerto Ramírez",
    "NUMERO": null,
    "DIRECCION": "Sector Puerto Ramírez",
    "FONO": null,
    "LATITUD": -43.481403,
    "LONGITUD": -72.128405,
    "REGION": "LOS LAGOS",
    "PROVINCIA": null,
    "COMUNA": "Palena"
  },
  {
    "COD_REG": 10,
    "NOM_REG": "Región De Los Lagos",
    "TIPO": "Posta de Salud Rural (PSR)",
    "NOMBRE": "Posta de Salud Rural El Frío o Santa Lucía",
    "NUMERO": null,
    "DIRECCION": "Sector El Frío o Santa Lucía",
    "FONO": null,
    "LATITUD": -43.41555,
    "LONGITUD": -72.36728,
    "REGION": "LOS LAGOS",
    "PROVINCIA": null,
    "COMUNA": "Chaitén"
  },
  {
    "COD_REG": 10,
    "NOM_REG": "Región De Los Lagos",
    "TIPO": "Posta de Salud Rural (PSR)",
    "NOMBRE": "Posta de Salud Rural Inio",
    "NUMERO": null,
    "DIRECCION": "Sector Inio, parque Tantauco",
    "FONO": null,
    "LATITUD": -43.36262,
    "LONGITUD": -74.12243,
    "REGION": "LOS LAGOS",
    "PROVINCIA": null,
    "COMUNA": "Quellón"
  },
  {
    "COD_REG": 10,
    "NOM_REG": "Región De Los Lagos",
    "TIPO": "Posta de Salud Rural (PSR)",
    "NOMBRE": "Posta de Salud Rural El Azul",
    "NUMERO": null,
    "DIRECCION": "Sector El Azul",
    "FONO": null,
    "LATITUD": -43.3231,
    "LONGITUD": -72.00914,
    "REGION": "LOS LAGOS",
    "PROVINCIA": null,
    "COMUNA": "Futaleufú"
  },
  {
    "COD_REG": 10,
    "NOM_REG": "Región De Los Lagos",
    "TIPO": "Posta de Salud Rural (PSR)",
    "NOMBRE": "Posta de Salud Rural Piedras Blancas",
    "NUMERO": null,
    "DIRECCION": "Sector Piedras Blancas",
    "FONO": null,
    "LATITUD": -43.24874,
    "LONGITUD": -73.6953,
    "REGION": "LOS LAGOS",
    "PROVINCIA": null,
    "COMUNA": "Quellón"
  },
  {
    "COD_REG": 10,
    "NOM_REG": "Región De Los Lagos",
    "TIPO": "Posta de Salud Rural (PSR)",
    "NOMBRE": "Posta de Salud Rural Punta Liles o Laitec",
    "NUMERO": null,
    "DIRECCION": "Sector Isla Laitec",
    "FONO": null,
    "LATITUD": -43.219119,
    "LONGITUD": -73.619778,
    "REGION": "LOS LAGOS",
    "PROVINCIA": null,
    "COMUNA": "Quellón"
  },
  {
    "COD_REG": 10,
    "NOM_REG": "Región De Los Lagos",
    "TIPO": "Posta de Salud Rural (PSR)",
    "NOMBRE": "Posta de Salud Rural Punta Paula o Coldita",
    "NUMERO": null,
    "DIRECCION": "Sector Isla Coldita",
    "FONO": null,
    "LATITUD": -43.189104,
    "LONGITUD": -73.692227,
    "REGION": "LOS LAGOS",
    "PROVINCIA": null,
    "COMUNA": "Quellón"
  },
  {
    "COD_REG": 10,
    "NOM_REG": "Región De Los Lagos",
    "TIPO": "Hospital",
    "NOMBRE": "Hospital de Futaleufú",
    "NUMERO": 382,
    "DIRECCION": "Balmaceda 382",
    "FONO": "652326800",
    "LATITUD": -43.18339,
    "LONGITUD": -71.86907,
    "REGION": "LOS LAGOS",
    "PROVINCIA": null,
    "COMUNA": "Futaleufú"
  },
  {
    "COD_REG": 10,
    "NOM_REG": "Región De Los Lagos",
    "TIPO": "Posta de Salud Rural (PSR)",
    "NOMBRE": "Posta de Salud Rural Pelu",
    "NUMERO": null,
    "DIRECCION": "Sector Isla Cailin",
    "FONO": null,
    "LATITUD": -43.150328,
    "LONGITUD": -73.551745,
    "REGION": "LOS LAGOS",
    "PROVINCIA": null,
    "COMUNA": "Quellón"
  },
  {
    "COD_REG": 10,
    "NOM_REG": "Región De Los Lagos",
    "TIPO": "Laboratorio Clínico",
    "NOMBRE": "Laboratorio Biolab Ltda",
    "NUMERO": 202,
    "DIRECCION": "Santos Vargas 202",
    "FONO": null,
    "LATITUD": -43.119468,
    "LONGITUD": -73.614694,
    "REGION": "LOS LAGOS",
    "PROVINCIA": null,
    "COMUNA": "Quellón"
  },
  {
    "COD_REG": 10,
    "NOM_REG": "Región De Los Lagos",
    "TIPO": "Laboratorio Clínico",
    "NOMBRE": "Laboratorio Clínico Corcovado",
    "NUMERO": 380,
    "DIRECCION": "Ignacio Carrera Pinto 380",
    "FONO": null,
    "LATITUD": -43.118851,
    "LONGITUD": -73.614706,
    "REGION": "LOS LAGOS",
    "PROVINCIA": null,
    "COMUNA": "Quellón"
  },
  {
    "COD_REG": 10,
    "NOM_REG": "Región De Los Lagos",
    "TIPO": "Centro de Salud Privado",
    "NOMBRE": "Policlínico de la AChS Quellón",
    "NUMERO": 367,
    "DIRECCION": "Ignacio Carrera Pinto 367",
    "FONO": "652681235",
    "LATITUD": -43.11839,
    "LONGITUD": -73.61438,
    "REGION": "LOS LAGOS",
    "PROVINCIA": null,
    "COMUNA": "Quellón"
  },
  {
    "COD_REG": 10,
    "NOM_REG": "Región De Los Lagos",
    "TIPO": "Centro de Salud Privado",
    "NOMBRE": "Policlínico de la Mutual de Seguridad CChC Quellón",
    "NUMERO": 354,
    "DIRECCION": "Ramón Freire 354",
    "FONO": "652681376",
    "LATITUD": -43.118366,
    "LONGITUD": -73.617134,
    "REGION": "LOS LAGOS",
    "PROVINCIA": null,
    "COMUNA": "Quellón"
  },
  {
    "COD_REG": 10,
    "NOM_REG": "Región De Los Lagos",
    "TIPO": "Centro Comunitario de Salud Familiar (CECOSF)",
    "NOMBRE": "Centro Comunitario de Salud Familiar Vista Hermosa",
    "NUMERO": null,
    "DIRECCION": "Las Industrias",
    "FONO": "652545188",
    "LATITUD": -43.11766,
    "LONGITUD": -73.60235,
    "REGION": "LOS LAGOS",
    "PROVINCIA": null,
    "COMUNA": "Quellón"
  },
  {
    "COD_REG": 10,
    "NOM_REG": "Región De Los Lagos",
    "TIPO": "Centro Comunitario de Salud Familiar (CECOSF)",
    "NOMBRE": "Centro Comunitario de Salud Familiar Rukalaf",
    "NUMERO": null,
    "DIRECCION": "Lautaro",
    "FONO": "652545188",
    "LATITUD": -43.1176,
    "LONGITUD": -73.63138,
    "REGION": "LOS LAGOS",
    "PROVINCIA": null,
    "COMUNA": "Quellón"
  },
  {
    "COD_REG": 10,
    "NOM_REG": "Región De Los Lagos",
    "TIPO": "Laboratorio Clínico",
    "NOMBRE": "Laboratorio Clínico MasterLab",
    "NUMERO": 445,
    "DIRECCION": "Ladrilleros 445",
    "FONO": null,
    "LATITUD": -43.117229,
    "LONGITUD": -73.620351,
    "REGION": "LOS LAGOS",
    "PROVINCIA": null,
    "COMUNA": "Quellón"
  },
  {
    "COD_REG": 10,
    "NOM_REG": "Región De Los Lagos",
    "TIPO": "Centro Comunitario de Salud Familiar (CECOSF)",
    "NOMBRE": "Centro Comunitario de Salud Familiar Villa Aytue",
    "NUMERO": 288,
    "DIRECCION": "Los Caciques 288",
    "FONO": null,
    "LATITUD": -43.111504,
    "LONGITUD": -73.618482,
    "REGION": "LOS LAGOS",
    "PROVINCIA": null,
    "COMUNA": "Quellón"
  },
  {
    "COD_REG": 10,
    "NOM_REG": "Región De Los Lagos",
    "TIPO": "Hospital",
    "NOMBRE": "Hospital de Quellón",
    "NUMERO": 305,
    "DIRECCION": "Dr. Ahues 305",
    "FONO": "652326632",
    "LATITUD": -43.11509,
    "LONGITUD": -73.61706,
    "REGION": "LOS LAGOS",
    "PROVINCIA": null,
    "COMUNA": "Quellón"
  },
  {
    "COD_REG": 10,
    "NOM_REG": "Región De Los Lagos",
    "TIPO": "Centro de Salud Familiar (CESFAM)",
    "NOMBRE": "Centro de Salud Familiar Quellón",
    "NUMERO": 590,
    "DIRECCION": "Galvarino Riveros 590",
    "FONO": "652683507",
    "LATITUD": -43.11444,
    "LONGITUD": -73.61254,
    "REGION": "LOS LAGOS",
    "PROVINCIA": null,
    "COMUNA": "Quellón"
  },
  {
    "COD_REG": 10,
    "NOM_REG": "Región De Los Lagos",
    "TIPO": "Posta de Salud Rural (PSR)",
    "NOMBRE": "Posta de Salud Rural Yaldad",
    "NUMERO": null,
    "DIRECCION": "Sector Yaldad",
    "FONO": null,
    "LATITUD": -43.11152,
    "LONGITUD": -73.7089,
    "REGION": "LOS LAGOS",
    "PROVINCIA": null,
    "COMUNA": "Quellón"
  },
  {
    "COD_REG": 10,
    "NOM_REG": "Región De Los Lagos",
    "TIPO": "Posta de Salud Rural (PSR)",
    "NOMBRE": "Posta de Salud Rural El Espolón",
    "NUMERO": null,
    "DIRECCION": "Sector El Espolón",
    "FONO": null,
    "LATITUD": -43.09361,
    "LONGITUD": -72.02093,
    "REGION": "LOS LAGOS",
    "PROVINCIA": null,
    "COMUNA": "Futaleufú"
  },
  {
    "COD_REG": 10,
    "NOM_REG": "Región De Los Lagos",
    "TIPO": "Posta de Salud Rural (PSR)",
    "NOMBRE": "Posta de Salud Rural Candelaria (Quellón)",
    "NUMERO": null,
    "DIRECCION": "Sector Candelaria",
    "FONO": null,
    "LATITUD": -43.06352,
    "LONGITUD": -73.56214,
    "REGION": "LOS LAGOS",
    "PROVINCIA": null,
    "COMUNA": "Quellón"
  },
  {
    "COD_REG": 10,
    "NOM_REG": "Región De Los Lagos",
    "TIPO": "Posta de Salud Rural (PSR)",
    "NOMBRE": "Posta de Salud Rural Chaullín",
    "NUMERO": null,
    "DIRECCION": "Sector Isla Chaullín",
    "FONO": null,
    "LATITUD": -43.04116,
    "LONGITUD": -73.46106,
    "REGION": "LOS LAGOS",
    "PROVINCIA": null,
    "COMUNA": "Quellón"
  },
  {
    "COD_REG": 10,
    "NOM_REG": "Región De Los Lagos",
    "TIPO": "Posta de Salud Rural (PSR)",
    "NOMBRE": "Posta de Salud Rural Coinco",
    "NUMERO": null,
    "DIRECCION": "Sector Coinco",
    "FONO": null,
    "LATITUD": -43.039279,
    "LONGITUD": -73.640811,
    "REGION": "LOS LAGOS",
    "PROVINCIA": null,
    "COMUNA": "Quellón"
  },
  {
    "COD_REG": 10,
    "NOM_REG": "Región De Los Lagos",
    "TIPO": "Posta de Salud Rural (PSR)",
    "NOMBRE": "Posta de Salud Rural Curanue",
    "NUMERO": null,
    "DIRECCION": "Sector Curanué",
    "FONO": null,
    "LATITUD": -43.03516,
    "LONGITUD": -73.56828,
    "REGION": "LOS LAGOS",
    "PROVINCIA": null,
    "COMUNA": "Quellón"
  },
  {
    "COD_REG": 10,
    "NOM_REG": "Región De Los Lagos",
    "TIPO": "Posta de Salud Rural (PSR)",
    "NOMBRE": "Posta de Salud Rural Auchac",
    "NUMERO": null,
    "DIRECCION": "Sector Auchac",
    "FONO": null,
    "LATITUD": -43.028841,
    "LONGITUD": -73.539411,
    "REGION": "LOS LAGOS",
    "PROVINCIA": null,
    "COMUNA": "Quellón"
  },
  {
    "COD_REG": 10,
    "NOM_REG": "Región De Los Lagos",
    "TIPO": "Posta de Salud Rural (PSR)",
    "NOMBRE": "Posta de Salud Rural Alqui",
    "NUMERO": null,
    "DIRECCION": "Sector Alqui",
    "FONO": "652611608",
    "LATITUD": -42.98198,
    "LONGITUD": -73.4666,
    "REGION": "LOS LAGOS",
    "PROVINCIA": null,
    "COMUNA": "Queilén"
  },
  {
    "COD_REG": 10,
    "NOM_REG": "Región De Los Lagos",
    "TIPO": "Posta de Salud Rural (PSR)",
    "NOMBRE": "Posta de Salud Rural San Juan de Chadmo",
    "NUMERO": null,
    "DIRECCION": "Sector San Juan de Chadmo",
    "FONO": null,
    "LATITUD": -42.97182,
    "LONGITUD": -73.58271,
    "REGION": "LOS LAGOS",
    "PROVINCIA": null,
    "COMUNA": "Quellón"
  },
  {
    "COD_REG": 10,
    "NOM_REG": "Región De Los Lagos",
    "TIPO": "Posta de Salud Rural (PSR)",
    "NOMBRE": "Posta de Salud Rural Nepúe",
    "NUMERO": null,
    "DIRECCION": "Sector Nepué",
    "FONO": "652611608",
    "LATITUD": -42.943622,
    "LONGITUD": -73.528561,
    "REGION": "LOS LAGOS",
    "PROVINCIA": null,
    "COMUNA": "Queilén"
  },
  {
    "COD_REG": 10,
    "NOM_REG": "Región De Los Lagos",
    "TIPO": "Posta de Salud Rural (PSR)",
    "NOMBRE": "Posta de Salud Rural San José",
    "NUMERO": null,
    "DIRECCION": "Sector Rural San José. Isla Tranqui",
    "FONO": "652611608",
    "LATITUD": -42.92723,
    "LONGITUD": -73.58581,
    "REGION": "LOS LAGOS",
    "PROVINCIA": null,
    "COMUNA": "Queilén"
  },
  {
    "COD_REG": 10,
    "NOM_REG": "Región De Los Lagos",
    "TIPO": "Posta de Salud Rural (PSR)",
    "NOMBRE": "Posta de Salud Rural Chadmo Central",
    "NUMERO": null,
    "DIRECCION": "Sector Chadmo Central",
    "FONO": null,
    "LATITUD": -42.92164,
    "LONGITUD": -73.68547,
    "REGION": "LOS LAGOS",
    "PROVINCIA": null,
    "COMUNA": "Quellón"
  },
  {
    "COD_REG": 10,
    "NOM_REG": "Región De Los Lagos",
    "TIPO": "Hospital",
    "NOMBRE": "Hospital de Chaitén",
    "NUMERO": 153,
    "DIRECCION": "Ignacio Carrera Pinto 153",
    "FONO": "652731344",
    "LATITUD": -42.91862,
    "LONGITUD": -72.71026,
    "REGION": "LOS LAGOS",
    "PROVINCIA": null,
    "COMUNA": "Chaitén"
  },
  {
    "COD_REG": 10,
    "NOM_REG": "Región De Los Lagos",
    "TIPO": "Hospital",
    "NOMBRE": "Hospital Comunitario de Queilén",
    "NUMERO": 331,
    "DIRECCION": "Rene Cárcamo 331",
    "FONO": "652328820",
    "LATITUD": -42.883399,
    "LONGITUD": -73.473613,
    "REGION": "LOS LAGOS",
    "PROVINCIA": null,
    "COMUNA": "Queilén"
  },
  {
    "COD_REG": 10,
    "NOM_REG": "Región De Los Lagos",
    "TIPO": "Posta de Salud Rural (PSR)",
    "NOMBRE": "Posta de Salud Rural Compu",
    "NUMERO": null,
    "DIRECCION": "Sector Compu",
    "FONO": null,
    "LATITUD": -42.877799,
    "LONGITUD": -73.698668,
    "REGION": "LOS LAGOS",
    "PROVINCIA": null,
    "COMUNA": "Quellón"
  },
  {
    "COD_REG": 10,
    "NOM_REG": "Región De Los Lagos",
    "TIPO": "Posta de Salud Rural (PSR)",
    "NOMBRE": "Posta de Salud Rural Pureo",
    "NUMERO": null,
    "DIRECCION": "Sector Pureo",
    "FONO": "652611608",
    "LATITUD": -42.85865,
    "LONGITUD": -73.66488,
    "REGION": "LOS LAGOS",
    "PROVINCIA": null,
    "COMUNA": "Queilén"
  },
  {
    "COD_REG": 10,
    "NOM_REG": "Región De Los Lagos",
    "TIPO": "Posta de Salud Rural (PSR)",
    "NOMBRE": "Posta de Salud Rural Natri",
    "NUMERO": null,
    "DIRECCION": "Sector Natri",
    "FONO": "967620253",
    "LATITUD": -42.84144,
    "LONGITUD": -73.74953,
    "REGION": "LOS LAGOS",
    "PROVINCIA": null,
    "COMUNA": "Chonchi"
  },
  {
    "COD_REG": 10,
    "NOM_REG": "Región De Los Lagos",
    "TIPO": "Posta de Salud Rural (PSR)",
    "NOMBRE": "Posta de Salud Rural de CONTUY",
    "NUMERO": null,
    "DIRECCION": "Localidad de Contuy",
    "FONO": "652611608",
    "LATITUD": -42.83526,
    "LONGITUD": -73.60461,
    "REGION": "LOS LAGOS",
    "PROVINCIA": null,
    "COMUNA": "Queilén"
  },
  {
    "COD_REG": 10,
    "NOM_REG": "Región De Los Lagos",
    "TIPO": "Posta de Salud Rural (PSR)",
    "NOMBRE": "Posta de Salud Rural Apeche",
    "NUMERO": null,
    "DIRECCION": "Sector Apeche",
    "FONO": "652611608",
    "LATITUD": -42.834244,
    "LONGITUD": -73.618558,
    "REGION": "LOS LAGOS",
    "PROVINCIA": null,
    "COMUNA": "Queilén"
  },
  {
    "COD_REG": 10,
    "NOM_REG": "Región De Los Lagos",
    "TIPO": "Posta de Salud Rural (PSR)",
    "NOMBRE": "Posta de Salud Rural Pío - Pío",
    "NUMERO": null,
    "DIRECCION": "Sector Pío - Pío",
    "FONO": "652611608",
    "LATITUD": -42.81525,
    "LONGITUD": -73.54212,
    "REGION": "LOS LAGOS",
    "PROVINCIA": null,
    "COMUNA": "Queilén"
  },
  {
    "COD_REG": 10,
    "NOM_REG": "Región De Los Lagos",
    "TIPO": "Posta de Salud Rural (PSR)",
    "NOMBRE": "Posta de Salud Rural Agoni Alto",
    "NUMERO": null,
    "DIRECCION": "Sector Agoni Alto",
    "FONO": "652611608",
    "LATITUD": -42.77188,
    "LONGITUD": -73.60496,
    "REGION": "LOS LAGOS",
    "PROVINCIA": null,
    "COMUNA": "Queilén"
  },
  {
    "COD_REG": 10,
    "NOM_REG": "Región De Los Lagos",
    "TIPO": "Posta de Salud Rural (PSR)",
    "NOMBRE": "Posta de Salud Rural Pulpito",
    "NUMERO": null,
    "DIRECCION": "Sector Pulpito",
    "FONO": "967621302",
    "LATITUD": -42.76111,
    "LONGITUD": -73.78861,
    "REGION": "LOS LAGOS",
    "PROVINCIA": null,
    "COMUNA": "Chonchi"
  },
  {
    "COD_REG": 10,
    "NOM_REG": "Región De Los Lagos",
    "TIPO": "Posta de Salud Rural (PSR)",
    "NOMBRE": "Posta de Salud Rural Chana",
    "NUMERO": null,
    "DIRECCION": "Caserío de Chana",
    "FONO": null,
    "LATITUD": -42.745111,
    "LONGITUD": -72.831228,
    "REGION": "LOS LAGOS",
    "PROVINCIA": null,
    "COMUNA": "Chaitén"
  },
  {
    "COD_REG": 10,
    "NOM_REG": "Región De Los Lagos",
    "TIPO": "Posta de Salud Rural (PSR)",
    "NOMBRE": "Posta de Salud Rural Talcán",
    "NUMERO": null,
    "DIRECCION": "Sector Talcán",
    "FONO": null,
    "LATITUD": -42.74491,
    "LONGITUD": -72.96194,
    "REGION": "LOS LAGOS",
    "PROVINCIA": null,
    "COMUNA": "Chaitén"
  },
  {
    "COD_REG": 10,
    "NOM_REG": "Región De Los Lagos",
    "TIPO": "Posta de Salud Rural (PSR)",
    "NOMBRE": "Posta de Salud Rural Terao",
    "NUMERO": null,
    "DIRECCION": "Sector Terao",
    "FONO": "967620253",
    "LATITUD": -42.71918,
    "LONGITUD": -73.66289,
    "REGION": "LOS LAGOS",
    "PROVINCIA": null,
    "COMUNA": "Chonchi"
  },
  {
    "COD_REG": 10,
    "NOM_REG": "Región De Los Lagos",
    "TIPO": "Posta de Salud Rural (PSR)",
    "NOMBRE": "Posta de Salud Rural Nayahue",
    "NUMERO": null,
    "DIRECCION": "Sector Nayahue - Auteni",
    "FONO": null,
    "LATITUD": -42.71586,
    "LONGITUD": -73.07577,
    "REGION": "LOS LAGOS",
    "PROVINCIA": null,
    "COMUNA": "Chaitén"
  },
  {
    "COD_REG": 10,
    "NOM_REG": "Región De Los Lagos",
    "TIPO": "Posta de Salud Rural (PSR)",
    "NOMBRE": "Posta de Salud Rural Detif",
    "NUMERO": null,
    "DIRECCION": "Caserío de Detif",
    "FONO": null,
    "LATITUD": -42.68489,
    "LONGITUD": -73.55596,
    "REGION": "LOS LAGOS",
    "PROVINCIA": null,
    "COMUNA": "Puqueldón"
  },
  {
    "COD_REG": 10,
    "NOM_REG": "Región De Los Lagos",
    "TIPO": "Centro Comunitario de Salud Familiar (CECOSF)",
    "NOMBRE": "Centro Comunitario de Salud Familiar Huillinco",
    "NUMERO": null,
    "DIRECCION": "Huillinco",
    "FONO": "962098355",
    "LATITUD": -42.67532,
    "LONGITUD": -73.89807,
    "REGION": "LOS LAGOS",
    "PROVINCIA": null,
    "COMUNA": "Chonchi"
  },
  {
    "COD_REG": 10,
    "NOM_REG": "Región De Los Lagos",
    "TIPO": "Posta de Salud Rural (PSR)",
    "NOMBRE": "Posta de Salud Rural Liucura (Puqueldón)",
    "NUMERO": null,
    "DIRECCION": "Caserío de Liucura",
    "FONO": null,
    "LATITUD": -42.6512,
    "LONGITUD": -73.60856,
    "REGION": "LOS LAGOS",
    "PROVINCIA": null,
    "COMUNA": "Puqueldón"
  },
  {
    "COD_REG": 10,
    "NOM_REG": "Región De Los Lagos",
    "TIPO": "Posta de Salud Rural (PSR)",
    "NOMBRE": "Posta de Salud Rural Cucao",
    "NUMERO": null,
    "DIRECCION": "Sector Cucao",
    "FONO": "967621307",
    "LATITUD": -42.636638,
    "LONGITUD": -74.108388,
    "REGION": "LOS LAGOS",
    "PROVINCIA": null,
    "COMUNA": "Chonchi"
  },
  {
    "COD_REG": 10,
    "NOM_REG": "Región De Los Lagos",
    "TIPO": "Posta de Salud Rural (PSR)",
    "NOMBRE": "Posta de Salud Rural Capilla Antigüa",
    "NUMERO": null,
    "DIRECCION": "Isla Chaulinec Sector Capilla antigua",
    "FONO": null,
    "LATITUD": -42.633906,
    "LONGITUD": -73.267579,
    "REGION": "LOS LAGOS",
    "PROVINCIA": null,
    "COMUNA": "Quinchao"
  },
  {
    "COD_REG": 10,
    "NOM_REG": "Región De Los Lagos",
    "TIPO": "Posta de Salud Rural (PSR)",
    "NOMBRE": "Posta de Salud Rural Chulín",
    "NUMERO": null,
    "DIRECCION": "Sector Chulín",
    "FONO": null,
    "LATITUD": -42.63047,
    "LONGITUD": -73.04044,
    "REGION": "LOS LAGOS",
    "PROVINCIA": null,
    "COMUNA": "Chaitén"
  },
  {
    "COD_REG": 10,
    "NOM_REG": "Región De Los Lagos",
    "TIPO": "Posta de Salud Rural (PSR)",
    "NOMBRE": "Posta de Salud Rural Chaulinec La Villa",
    "NUMERO": null,
    "DIRECCION": "Sector la Villa, Isla Chaulinec",
    "FONO": null,
    "LATITUD": -42.626615,
    "LONGITUD": -73.296979,
    "REGION": "LOS LAGOS",
    "PROVINCIA": null,
    "COMUNA": "Quinchao"
  },
  {
    "COD_REG": 10,
    "NOM_REG": "Región De Los Lagos",
    "TIPO": "Centro de Salud Familiar (CESFAM)",
    "NOMBRE": "Centro de Salud Familiar Chonchi",
    "NUMERO": null,
    "DIRECCION": "Chonchi",
    "FONO": "652671643",
    "LATITUD": -42.62453,
    "LONGITUD": -73.7675,
    "REGION": "LOS LAGOS",
    "PROVINCIA": null,
    "COMUNA": "Chonchi"
  },
  {
    "COD_REG": 10,
    "NOM_REG": "Región De Los Lagos",
    "TIPO": "Servicio de Urgencia Rural (SUR)",
    "NOMBRE": "SUR Chonchi",
    "NUMERO": null,
    "DIRECCION": "Chonchi",
    "FONO": null,
    "LATITUD": -42.622752,
    "LONGITUD": -73.777951,
    "REGION": "LOS LAGOS",
    "PROVINCIA": null,
    "COMUNA": "Chonchi"
  },
  {
    "COD_REG": 10,
    "NOM_REG": "Región De Los Lagos",
    "TIPO": "Posta de Salud Rural (PSR)",
    "NOMBRE": "Posta de Salud Rural Petanes Bajos",
    "NUMERO": null,
    "DIRECCION": "Sector Petantes Bajos",
    "FONO": "967621306",
    "LATITUD": -42.622737,
    "LONGITUD": -73.918767,
    "REGION": "LOS LAGOS",
    "PROVINCIA": null,
    "COMUNA": "Chonchi"
  },
  {
    "COD_REG": 10,
    "NOM_REG": "Región De Los Lagos",
    "TIPO": "Posta de Salud Rural (PSR)",
    "NOMBRE": "Posta de Salud Rural Ichuac",
    "NUMERO": null,
    "DIRECCION": "Caserío de Ichuac",
    "FONO": null,
    "LATITUD": -42.61617,
    "LONGITUD": -73.71893,
    "REGION": "LOS LAGOS",
    "PROVINCIA": null,
    "COMUNA": "Puqueldón"
  },
  {
    "COD_REG": 10,
    "NOM_REG": "Región De Los Lagos",
    "TIPO": "Posta de Salud Rural (PSR)",
    "NOMBRE": "Posta de Salud Rural Quehui",
    "NUMERO": null,
    "DIRECCION": "Sector Quehui",
    "FONO": "975591391",
    "LATITUD": -42.61354,
    "LONGITUD": -73.49468,
    "REGION": "LOS LAGOS",
    "PROVINCIA": null,
    "COMUNA": "Castro"
  },
  {
    "COD_REG": 10,
    "NOM_REG": "Región De Los Lagos",
    "TIPO": "Posta de Salud Rural (PSR)",
    "NOMBRE": "Posta de Salud Rural Chanquín",
    "NUMERO": null,
    "DIRECCION": "Sector Chanquín",
    "FONO": "967620254",
    "LATITUD": -42.60277,
    "LONGITUD": -74.120282,
    "REGION": "LOS LAGOS",
    "PROVINCIA": null,
    "COMUNA": "Chonchi"
  },
  {
    "COD_REG": 10,
    "NOM_REG": "Región De Los Lagos",
    "TIPO": "Posta de Salud Rural (PSR)",
    "NOMBRE": "Posta de Salud Rural Isla Alao",
    "NUMERO": null,
    "DIRECCION": "Sector Isla Alao",
    "FONO": null,
    "LATITUD": -42.60089,
    "LONGITUD": -73.29903,
    "REGION": "LOS LAGOS",
    "PROVINCIA": null,
    "COMUNA": "Quinchao"
  },
  {
    "COD_REG": 10,
    "NOM_REG": "Región De Los Lagos",
    "TIPO": "Servicio de Urgencia Rural (SUR)",
    "NOMBRE": "SUR Puqueldón",
    "NUMERO": null,
    "DIRECCION": "Puqueldón",
    "FONO": null,
    "LATITUD": -42.598831,
    "LONGITUD": -73.676567,
    "REGION": "LOS LAGOS",
    "PROVINCIA": null,
    "COMUNA": "Puqueldón"
  },
  {
    "COD_REG": 10,
    "NOM_REG": "Región De Los Lagos",
    "TIPO": "Centro de Salud Familiar (CESFAM)",
    "NOMBRE": "Centro de Salud Familiar Puqueldón",
    "NUMERO": null,
    "DIRECCION": "Puqueldón",
    "FONO": "652250193",
    "LATITUD": -42.5988,
    "LONGITUD": -73.6765,
    "REGION": "LOS LAGOS",
    "PROVINCIA": null,
    "COMUNA": "Puqueldón"
  },
  {
    "COD_REG": 10,
    "NOM_REG": "Región De Los Lagos",
    "TIPO": "Centro Comunitario de Salud Familiar (CECOSF)",
    "NOMBRE": "Centro Comunitario de Salud Familiar Carlina Paillacar",
    "NUMERO": null,
    "DIRECCION": "Sector Apiao, Isla de Apiao",
    "FONO": null,
    "LATITUD": -42.5976,
    "LONGITUD": -73.21151,
    "REGION": "LOS LAGOS",
    "PROVINCIA": null,
    "COMUNA": "Quinchao"
  },
  {
    "COD_REG": 10,
    "NOM_REG": "Región De Los Lagos",
    "TIPO": "Posta de Salud Rural (PSR)",
    "NOMBRE": "Posta de Salud Rural Curaco de Vilupulli",
    "NUMERO": null,
    "DIRECCION": "Sector Vilupulli",
    "FONO": "967621303",
    "LATITUD": -42.59437,
    "LONGITUD": -73.86074,
    "REGION": "LOS LAGOS",
    "PROVINCIA": null,
    "COMUNA": "Chonchi"
  },
  {
    "COD_REG": 10,
    "NOM_REG": "Región De Los Lagos",
    "TIPO": "Posta de Salud Rural (PSR)",
    "NOMBRE": "Posta de Salud Rural Chelín",
    "NUMERO": null,
    "DIRECCION": "Sector Chelín",
    "FONO": "975591357",
    "LATITUD": -42.58519,
    "LONGITUD": -73.51912,
    "REGION": "LOS LAGOS",
    "PROVINCIA": null,
    "COMUNA": "Castro"
  },
  {
    "COD_REG": 10,
    "NOM_REG": "Región De Los Lagos",
    "TIPO": "Posta de Salud Rural (PSR)",
    "NOMBRE": "Posta de Salud Rural Aldachildo",
    "NUMERO": null,
    "DIRECCION": "Caserío de Aldachildo",
    "FONO": null,
    "LATITUD": -42.58297,
    "LONGITUD": -73.61163,
    "REGION": "LOS LAGOS",
    "PROVINCIA": null,
    "COMUNA": "Puqueldón"
  },
  {
    "COD_REG": 10,
    "NOM_REG": "Región De Los Lagos",
    "TIPO": "Posta de Salud Rural (PSR)",
    "NOMBRE": "Posta de Salud Rural Casa de Pesca",
    "NUMERO": null,
    "DIRECCION": "Sector Casa de Pesca",
    "FONO": null,
    "LATITUD": -42.56428,
    "LONGITUD": -72.82447,
    "REGION": "LOS LAGOS",
    "PROVINCIA": null,
    "COMUNA": "Chaitén"
  },
  {
    "COD_REG": 10,
    "NOM_REG": "Región De Los Lagos",
    "TIPO": "Posta de Salud Rural (PSR)",
    "NOMBRE": "Posta de Salud Rural Curahue",
    "NUMERO": null,
    "DIRECCION": "Sector Curahue",
    "FONO": "962390407",
    "LATITUD": -42.54984,
    "LONGITUD": -73.68143,
    "REGION": "LOS LAGOS",
    "PROVINCIA": null,
    "COMUNA": "Castro"
  },
  {
    "COD_REG": 10,
    "NOM_REG": "Región De Los Lagos",
    "TIPO": "Posta de Salud Rural (PSR)",
    "NOMBRE": "Posta de Salud Rural Rauco",
    "NUMERO": null,
    "DIRECCION": "Sector Rauco",
    "FONO": "967621305",
    "LATITUD": -42.54645,
    "LONGITUD": -73.79598,
    "REGION": "LOS LAGOS",
    "PROVINCIA": null,
    "COMUNA": "Chonchi"
  },
  {
    "COD_REG": 10,
    "NOM_REG": "Región De Los Lagos",
    "TIPO": "Posta de Salud Rural (PSR)",
    "NOMBRE": "Posta de Salud Rural Quinchao",
    "NUMERO": null,
    "DIRECCION": "Sector Quinchao",
    "FONO": null,
    "LATITUD": -42.53985,
    "LONGITUD": -73.42386,
    "REGION": "LOS LAGOS",
    "PROVINCIA": null,
    "COMUNA": "Quinchao"
  },
  {
    "COD_REG": 10,
    "NOM_REG": "Región De Los Lagos",
    "TIPO": "Posta de Salud Rural (PSR)",
    "NOMBRE": "Posta de Salud Rural Nalhuitad",
    "NUMERO": null,
    "DIRECCION": "Sector Nalhuitad",
    "FONO": "967621304",
    "LATITUD": -42.52989,
    "LONGITUD": -73.84049,
    "REGION": "LOS LAGOS",
    "PROVINCIA": null,
    "COMUNA": "Chonchi"
  },
  {
    "COD_REG": 10,
    "NOM_REG": "Región De Los Lagos",
    "TIPO": "Posta de Salud Rural (PSR)",
    "NOMBRE": "Posta de Salud Rural Chumeldén",
    "NUMERO": null,
    "DIRECCION": "Sector Chumeldén",
    "FONO": null,
    "LATITUD": -42.52119,
    "LONGITUD": -72.81197,
    "REGION": "LOS LAGOS",
    "PROVINCIA": null,
    "COMUNA": "Chaitén"
  },
  {
    "COD_REG": 10,
    "NOM_REG": "Región De Los Lagos",
    "TIPO": "Centro Comunitario de Salud Familiar (CECOSF)",
    "NOMBRE": "Centro Comunitario de Salud Familiar Rilán",
    "NUMERO": 8,
    "DIRECCION": "18 de Septiembre, Sector Rilán Rural 8",
    "FONO": "975887827",
    "LATITUD": -42.52041,
    "LONGITUD": -73.62747,
    "REGION": "LOS LAGOS",
    "PROVINCIA": null,
    "COMUNA": "Castro"
  },
  {
    "COD_REG": 10,
    "NOM_REG": "Región De Los Lagos",
    "TIPO": "Posta de Salud Rural (PSR)",
    "NOMBRE": "Posta de Salud Rural Yutuy",
    "NUMERO": null,
    "DIRECCION": "Sector Yutuy",
    "FONO": "962390631",
    "LATITUD": -42.51786,
    "LONGITUD": -73.75289,
    "REGION": "LOS LAGOS",
    "PROVINCIA": null,
    "COMUNA": "Castro"
  },
  {
    "COD_REG": 10,
    "NOM_REG": "Región De Los Lagos",
    "TIPO": "Posta de Salud Rural (PSR)",
    "NOMBRE": "Posta de Salud Rural Isla Cahuach",
    "NUMERO": null,
    "DIRECCION": "Sector Isla Cahuach",
    "FONO": null,
    "LATITUD": -42.5098,
    "LONGITUD": -73.2662,
    "REGION": "LOS LAGOS",
    "PROVINCIA": null,
    "COMUNA": "Quinchao"
  },
  {
    "COD_REG": 10,
    "NOM_REG": "Región De Los Lagos",
    "TIPO": "Posta de Salud Rural (PSR)",
    "NOMBRE": "Posta de Salud Rural Puyán",
    "NUMERO": null,
    "DIRECCION": "Sector Puyán",
    "FONO": "962390772",
    "LATITUD": -42.50873,
    "LONGITUD": -73.72288,
    "REGION": "LOS LAGOS",
    "PROVINCIA": null,
    "COMUNA": "Castro"
  },
  {
    "COD_REG": 10,
    "NOM_REG": "Región De Los Lagos",
    "TIPO": "Laboratorio Clínico",
    "NOMBRE": "Laboratorio Clínico y Hematológico Biolab",
    "NUMERO": 406,
    "DIRECCION": "Freire 406",
    "FONO": null,
    "LATITUD": -42.481583,
    "LONGITUD": -73.76844,
    "REGION": "LOS LAGOS",
    "PROVINCIA": null,
    "COMUNA": "Castro"
  },
  {
    "COD_REG": 10,
    "NOM_REG": "Región De Los Lagos",
    "TIPO": "Laboratorio Clínico",
    "NOMBRE": "Laboratorio Clínico y Hematológico Biolab Ltda. ECOSUR",
    "NUMERO": 415,
    "DIRECCION": "Serrano 415",
    "FONO": null,
    "LATITUD": -42.48154,
    "LONGITUD": -73.761748,
    "REGION": "LOS LAGOS",
    "PROVINCIA": null,
    "COMUNA": "Castro"
  },
  {
    "COD_REG": 10,
    "NOM_REG": "Región De Los Lagos",
    "TIPO": "Laboratorio Clínico",
    "NOMBRE": "Laboratorio Clínico el Bosque",
    "NUMERO": 458,
    "DIRECCION": "Serrano 458",
    "FONO": null,
    "LATITUD": -42.481138,
    "LONGITUD": -73.762143,
    "REGION": "LOS LAGOS",
    "PROVINCIA": null,
    "COMUNA": "Castro"
  },
  {
    "COD_REG": 10,
    "NOM_REG": "Región De Los Lagos",
    "TIPO": "Laboratorio Clínico",
    "NOMBRE": "Laboratorio Clínico Austral",
    "NUMERO": 458,
    "DIRECCION": "Serrano, Oficina 28 458",
    "FONO": null,
    "LATITUD": -42.481135,
    "LONGITUD": -73.762228,
    "REGION": "LOS LAGOS",
    "PROVINCIA": null,
    "COMUNA": "Castro"
  },
  {
    "COD_REG": 10,
    "NOM_REG": "Región De Los Lagos",
    "TIPO": "Laboratorio Clínico",
    "NOMBRE": "Laboratorio Clínico Austral",
    "NUMERO": 459,
    "DIRECCION": "Serrano 459",
    "FONO": null,
    "LATITUD": -42.481075,
    "LONGITUD": -73.761736,
    "REGION": "LOS LAGOS",
    "PROVINCIA": null,
    "COMUNA": "Castro"
  },
  {
    "COD_REG": 10,
    "NOM_REG": "Región De Los Lagos",
    "TIPO": "Centro de Salud Privado",
    "NOMBRE": "Centro Médico Austral",
    "NUMERO": 459,
    "DIRECCION": "Serrano 459",
    "FONO": "652633954",
    "LATITUD": -42.481073,
    "LONGITUD": -73.761779,
    "REGION": "LOS LAGOS",
    "PROVINCIA": null,
    "COMUNA": "Castro"
  },
  {
    "COD_REG": 10,
    "NOM_REG": "Región De Los Lagos",
    "TIPO": "Centro Comunitario de Salud Familiar (CECOSF)",
    "NOMBRE": "Centro Comunitario de Salud Familiar Gamboa",
    "NUMERO": 301,
    "DIRECCION": "Profesor César Vera 301",
    "FONO": "962391837",
    "LATITUD": -42.480916,
    "LONGITUD": -73.781801,
    "REGION": "LOS LAGOS",
    "PROVINCIA": null,
    "COMUNA": "Castro"
  },
  {
    "COD_REG": 10,
    "NOM_REG": "Región De Los Lagos",
    "TIPO": "Centro de Salud Privado",
    "NOMBRE": "Policlínico de la AChS Castro",
    "NUMERO": 498,
    "DIRECCION": "Ramón Freire 498",
    "FONO": "652639430",
    "LATITUD": -42.480623,
    "LONGITUD": -73.768543,
    "REGION": "LOS LAGOS",
    "PROVINCIA": null,
    "COMUNA": "Castro"
  },
  {
    "COD_REG": 10,
    "NOM_REG": "Región De Los Lagos",
    "TIPO": "Unidad de Procedimientos Móvil",
    "NOMBRE": "Clínica Dental Móvil Triple. Pat. BKYS90 (Castro)",
    "NUMERO": 504,
    "DIRECCION": "Bernardo O'Higgins 504",
    "FONO": "327601",
    "LATITUD": -42.480422,
    "LONGITUD": -73.765145,
    "REGION": "LOS LAGOS",
    "PROVINCIA": null,
    "COMUNA": "Castro"
  },
  {
    "COD_REG": 10,
    "NOM_REG": "Región De Los Lagos",
    "TIPO": "Unidad de Salud Funcionarios",
    "NOMBRE": "Unidad de Salud Funcionario   S.S Chiloé",
    "NUMERO": 504,
    "DIRECCION": "BernardoO'Higgins 504",
    "FONO": null,
    "LATITUD": -42.480422,
    "LONGITUD": -73.765145,
    "REGION": "LOS LAGOS",
    "PROVINCIA": null,
    "COMUNA": "Castro"
  },
  {
    "COD_REG": 10,
    "NOM_REG": "Región De Los Lagos",
    "TIPO": "Dirección Servicio de Salud",
    "NOMBRE": "Actividades gestionadas por la Dirección del Servicio para apoyo de la Red (S.S de Chiloé)",
    "NUMERO": 504,
    "DIRECCION": "Bernardo O'Higgins 504",
    "FONO": null,
    "LATITUD": -42.480422,
    "LONGITUD": -73.765145,
    "REGION": "LOS LAGOS",
    "PROVINCIA": null,
    "COMUNA": "Castro"
  },
  {
    "COD_REG": 10,
    "NOM_REG": "Región De Los Lagos",
    "TIPO": "Programa de Reparación y Atención Integral de Salud (PRAIS)",
    "NOMBRE": "PRAIS (S.S Chiloé)",
    "NUMERO": 504,
    "DIRECCION": "BernardoO'Higgins 504",
    "FONO": null,
    "LATITUD": -42.480422,
    "LONGITUD": -73.765145,
    "REGION": "LOS LAGOS",
    "PROVINCIA": null,
    "COMUNA": "Castro"
  },
  {
    "COD_REG": 10,
    "NOM_REG": "Región De Los Lagos",
    "TIPO": "Centro de Salud Privado",
    "NOMBRE": "Policlínico Instituto de Seguridad del Trabajo de Castro",
    "NUMERO": 488,
    "DIRECCION": "O'Higgins 488",
    "FONO": "652637740",
    "LATITUD": -42.480412,
    "LONGITUD": -73.76217,
    "REGION": "LOS LAGOS",
    "PROVINCIA": null,
    "COMUNA": "Castro"
  },
  {
    "COD_REG": 10,
    "NOM_REG": "Región De Los Lagos",
    "TIPO": "Centro de Salud Privado",
    "NOMBRE": "Policlínico de la Mutual de Seguridad CChC Castro",
    "NUMERO": 735,
    "DIRECCION": "O'Higgins 735",
    "FONO": "652632784",
    "LATITUD": -42.477619,
    "LONGITUD": -73.765054,
    "REGION": "LOS LAGOS",
    "PROVINCIA": null,
    "COMUNA": "Castro"
  },
  {
    "COD_REG": 10,
    "NOM_REG": "Región De Los Lagos",
    "TIPO": "Laboratorio Clínico",
    "NOMBRE": "Laboratorio Clínico Chiloé",
    "NUMERO": 759,
    "DIRECCION": "Freire 759",
    "FONO": null,
    "LATITUD": -42.477497,
    "LONGITUD": -73.768092,
    "REGION": "LOS LAGOS",
    "PROVINCIA": null,
    "COMUNA": "Castro"
  },
  {
    "COD_REG": 10,
    "NOM_REG": "Región De Los Lagos",
    "TIPO": "Hospital",
    "NOMBRE": "Hospital de Castro",
    "NUMERO": 852,
    "DIRECCION": "Freire 852",
    "FONO": "652650548",
    "LATITUD": -42.477043,
    "LONGITUD": -73.76933,
    "REGION": "LOS LAGOS",
    "PROVINCIA": null,
    "COMUNA": "Castro"
  },
  {
    "COD_REG": 10,
    "NOM_REG": "Región De Los Lagos",
    "TIPO": "Centro de Salud Familiar (CESFAM)",
    "NOMBRE": "Centro de Salud Familiar Dr. René Tapia Salgado",
    "NUMERO": 939,
    "DIRECCION": "Galvarino Riveros 939",
    "FONO": "652632216",
    "LATITUD": -42.47437,
    "LONGITUD": -73.77202,
    "REGION": "LOS LAGOS",
    "PROVINCIA": null,
    "COMUNA": "Castro"
  },
  {
    "COD_REG": 10,
    "NOM_REG": "Región De Los Lagos",
    "TIPO": "Hospital",
    "NOMBRE": "Hospital Comunitario de Achao",
    "NUMERO": 16,
    "DIRECCION": "Riquelme 16",
    "FONO": "652328800",
    "LATITUD": -42.46956,
    "LONGITUD": -73.4946,
    "REGION": "LOS LAGOS",
    "PROVINCIA": null,
    "COMUNA": "Quinchao"
  },
  {
    "COD_REG": 10,
    "NOM_REG": "Región De Los Lagos",
    "TIPO": "Centro Comunitario de Salud Familiar (CECOSF)",
    "NOMBRE": "Centro Comunitario de Salud Familiar Kintunien",
    "NUMERO": null,
    "DIRECCION": "Inés de Bazan",
    "FONO": "652537081",
    "LATITUD": -42.46459,
    "LONGITUD": -73.77779,
    "REGION": "LOS LAGOS",
    "PROVINCIA": null,
    "COMUNA": "Castro"
  },
  {
    "COD_REG": 10,
    "NOM_REG": "Región De Los Lagos",
    "TIPO": "Centro de Salud Familiar (CESFAM)",
    "NOMBRE": "Centro de Salud Familiar Quillahue",
    "NUMERO": 2719,
    "DIRECCION": "Galvarino Riveros Norte 2719",
    "FONO": "652773080",
    "LATITUD": -42.46066,
    "LONGITUD": -73.79259,
    "REGION": "LOS LAGOS",
    "PROVINCIA": null,
    "COMUNA": "Castro"
  },
  {
    "COD_REG": 10,
    "NOM_REG": "Región De Los Lagos",
    "TIPO": "Servicio de Atención Primaria de Urgencia de Alta Resolutividad (SAR)",
    "NOMBRE": "SAR Castro",
    "NUMERO": 2719,
    "DIRECCION": "Galvarino Riveros Norte 2719",
    "FONO": "56959869775",
    "LATITUD": -42.460482,
    "LONGITUD": -73.792562,
    "REGION": "LOS LAGOS",
    "PROVINCIA": null,
    "COMUNA": "Castro"
  },
  {
    "COD_REG": 10,
    "NOM_REG": "Región De Los Lagos",
    "TIPO": "Posta de Salud Rural (PSR)",
    "NOMBRE": "Posta de Salud Rural Isla Quenac",
    "NUMERO": null,
    "DIRECCION": "Sector Isla Quenac",
    "FONO": null,
    "LATITUD": -42.458186,
    "LONGITUD": -73.331314,
    "REGION": "LOS LAGOS",
    "PROVINCIA": null,
    "COMUNA": "Quinchao"
  },
  {
    "COD_REG": 10,
    "NOM_REG": "Región De Los Lagos",
    "TIPO": "Centro de Salud Familiar (CESFAM)",
    "NOMBRE": "Centro de Salud Familiar Curaco de Vélez",
    "NUMERO": 6,
    "DIRECCION": "Gabriela Mistral 6",
    "FONO": "652667388",
    "LATITUD": -42.43967,
    "LONGITUD": -73.60028,
    "REGION": "LOS LAGOS",
    "PROVINCIA": null,
    "COMUNA": "Curaco de Vélez"
  },
  {
    "COD_REG": 10,
    "NOM_REG": "Región De Los Lagos",
    "TIPO": "Servicio de Urgencia Rural (SUR)",
    "NOMBRE": "SUR Curaco de Vélez",
    "NUMERO": 6,
    "DIRECCION": "Gabriela Mistral 6",
    "FONO": "652667388",
    "LATITUD": -42.43967,
    "LONGITUD": -73.600279,
    "REGION": "LOS LAGOS",
    "PROVINCIA": null,
    "COMUNA": "Curaco de Vélez"
  },
  {
    "COD_REG": 10,
    "NOM_REG": "Región De Los Lagos",
    "TIPO": "Centro Comunitario de Salud Familiar (CECOSF)",
    "NOMBRE": "Centro Comunitario de Salud Familiar Llau Llao",
    "NUMERO": 218,
    "DIRECCION": "Arturo Prat 218",
    "FONO": "652328680",
    "LATITUD": -42.43555,
    "LONGITUD": -73.76907,
    "REGION": "LOS LAGOS",
    "PROVINCIA": null,
    "COMUNA": "Castro"
  },
  {
    "COD_REG": 10,
    "NOM_REG": "Región De Los Lagos",
    "TIPO": "Posta de Salud Rural (PSR)",
    "NOMBRE": "Posta de Salud Rural Isla Llingua",
    "NUMERO": null,
    "DIRECCION": "Sector Isla Llingua",
    "FONO": null,
    "LATITUD": -42.432643,
    "LONGITUD": -73.45283,
    "REGION": "LOS LAGOS",
    "PROVINCIA": null,
    "COMUNA": "Quinchao"
  },
  {
    "COD_REG": 10,
    "NOM_REG": "Región De Los Lagos",
    "TIPO": "Centro Comunitario de Salud Familiar (CECOSF)",
    "NOMBRE": "Centro Comunitario de Salud Familiar Isla Meulín",
    "NUMERO": null,
    "DIRECCION": "Isla Meulín, Sector San Francisco",
    "FONO": "992423196",
    "LATITUD": -42.416416,
    "LONGITUD": -73.299654,
    "REGION": "LOS LAGOS",
    "PROVINCIA": null,
    "COMUNA": "Quinchao"
  },
  {
    "COD_REG": 10,
    "NOM_REG": "Región De Los Lagos",
    "TIPO": "Posta de Salud Rural (PSR)",
    "NOMBRE": "Posta de Salud Rural Palqui",
    "NUMERO": null,
    "DIRECCION": "Sector Palqui",
    "FONO": "967616429",
    "LATITUD": -42.40884,
    "LONGITUD": -73.52866,
    "REGION": "LOS LAGOS",
    "PROVINCIA": null,
    "COMUNA": "Curaco de Vélez"
  },
  {
    "COD_REG": 10,
    "NOM_REG": "Región De Los Lagos",
    "TIPO": "Posta de Salud Rural (PSR)",
    "NOMBRE": "Posta de Salud Rural Pid - Pid",
    "NUMERO": null,
    "DIRECCION": "Caserío de Pid Pid",
    "FONO": "962390272",
    "LATITUD": -42.40386,
    "LONGITUD": -73.7741,
    "REGION": "LOS LAGOS",
    "PROVINCIA": null,
    "COMUNA": "Castro"
  },
  {
    "COD_REG": 10,
    "NOM_REG": "Región De Los Lagos",
    "TIPO": "Posta de Salud Rural (PSR)",
    "NOMBRE": "Posta de Salud Rural Huyar Alto",
    "NUMERO": null,
    "DIRECCION": "Sector Huyar Alto",
    "FONO": "967616430",
    "LATITUD": -42.40249,
    "LONGITUD": -73.56671,
    "REGION": "LOS LAGOS",
    "PROVINCIA": null,
    "COMUNA": "Curaco de Vélez"
  },
  {
    "COD_REG": 10,
    "NOM_REG": "Región De Los Lagos",
    "TIPO": "Posta de Salud Rural (PSR)",
    "NOMBRE": "Posta de Salud Rural Buill",
    "NUMERO": null,
    "DIRECCION": "Caserío Buill",
    "FONO": null,
    "LATITUD": -42.40182,
    "LONGITUD": -72.71769,
    "REGION": "LOS LAGOS",
    "PROVINCIA": null,
    "COMUNA": "Chaitén"
  },
  {
    "COD_REG": 10,
    "NOM_REG": "Región De Los Lagos",
    "TIPO": "Posta de Salud Rural (PSR)",
    "NOMBRE": "Posta de Salud Rural Isla Lin-Lin",
    "NUMERO": null,
    "DIRECCION": "Sector Isla Lin-Lin",
    "FONO": null,
    "LATITUD": -42.3883,
    "LONGITUD": -73.43407,
    "REGION": "LOS LAGOS",
    "PROVINCIA": null,
    "COMUNA": "Quinchao"
  },
  {
    "COD_REG": 10,
    "NOM_REG": "Región De Los Lagos",
    "TIPO": "Posta de Salud Rural (PSR)",
    "NOMBRE": "Posta de Salud Rural Tac",
    "NUMERO": null,
    "DIRECCION": "Isla Tac",
    "FONO": "993232823",
    "LATITUD": -42.38676,
    "LONGITUD": -73.13622,
    "REGION": "LOS LAGOS",
    "PROVINCIA": null,
    "COMUNA": "Quemchi"
  },
  {
    "COD_REG": 10,
    "NOM_REG": "Región De Los Lagos",
    "TIPO": "Centro de Salud Familiar (CESFAM)",
    "NOMBRE": "Centro de Salud Familiar Dalcahue",
    "NUMERO": 315,
    "DIRECCION": "Ramón Freire 315",
    "FONO": "652641295",
    "LATITUD": -42.37922,
    "LONGITUD": -73.65206,
    "REGION": "LOS LAGOS",
    "PROVINCIA": null,
    "COMUNA": "Dalcahue"
  },
  {
    "COD_REG": 10,
    "NOM_REG": "Región De Los Lagos",
    "TIPO": "Servicio de Urgencia Rural (SUR)",
    "NOMBRE": "SUR Dalcahue",
    "NUMERO": 315,
    "DIRECCION": "Ramón Freire 315",
    "FONO": null,
    "LATITUD": -42.37759,
    "LONGITUD": -73.676554,
    "REGION": "LOS LAGOS",
    "PROVINCIA": null,
    "COMUNA": "Dalcahue"
  },
  {
    "COD_REG": 10,
    "NOM_REG": "Región De Los Lagos",
    "TIPO": "Posta de Salud Rural (PSR)",
    "NOMBRE": "Posta de Salud Rural Mocopulli",
    "NUMERO": null,
    "DIRECCION": "Aldea de Mocopulli",
    "FONO": null,
    "LATITUD": -42.35281,
    "LONGITUD": -73.70994,
    "REGION": "LOS LAGOS",
    "PROVINCIA": null,
    "COMUNA": "Dalcahue"
  },
  {
    "COD_REG": 10,
    "NOM_REG": "Región De Los Lagos",
    "TIPO": "Posta de Salud Rural (PSR)",
    "NOMBRE": "Posta de Salud Rural Quetalco",
    "NUMERO": null,
    "DIRECCION": "Sector Quetalco",
    "FONO": null,
    "LATITUD": -42.31899,
    "LONGITUD": -73.5562,
    "REGION": "LOS LAGOS",
    "PROVINCIA": null,
    "COMUNA": "Dalcahue"
  },
  {
    "COD_REG": 10,
    "NOM_REG": "Región De Los Lagos",
    "TIPO": "Posta de Salud Rural (PSR)",
    "NOMBRE": "Posta de Salud Rural Calén",
    "NUMERO": null,
    "DIRECCION": "Caserío Calén",
    "FONO": null,
    "LATITUD": -42.32826,
    "LONGITUD": -73.4599,
    "REGION": "LOS LAGOS",
    "PROVINCIA": null,
    "COMUNA": "Dalcahue"
  },
  {
    "COD_REG": 10,
    "NOM_REG": "Región De Los Lagos",
    "TIPO": "Centro Comunitario de Salud Familiar (CECOSF)",
    "NOMBRE": "Centro Comunitario de Salud Familiar de Ayacara",
    "NUMERO": null,
    "DIRECCION": "Sector Ayacara",
    "FONO": null,
    "LATITUD": -42.31861,
    "LONGITUD": -72.78786,
    "REGION": "LOS LAGOS",
    "PROVINCIA": null,
    "COMUNA": "Chaitén"
  },
  {
    "COD_REG": 10,
    "NOM_REG": "Región De Los Lagos",
    "TIPO": "Posta de Salud Rural (PSR)",
    "NOMBRE": "Posta de Salud Rural Tenaún",
    "NUMERO": null,
    "DIRECCION": "Caserío de Tenaún",
    "FONO": null,
    "LATITUD": -42.31577,
    "LONGITUD": -73.3866,
    "REGION": "LOS LAGOS",
    "PROVINCIA": null,
    "COMUNA": "Dalcahue"
  },
  {
    "COD_REG": 10,
    "NOM_REG": "Región De Los Lagos",
    "TIPO": "Posta de Salud Rural (PSR)",
    "NOMBRE": "Posta de Salud Rural Mechuque",
    "NUMERO": null,
    "DIRECCION": "Sector Mechuque",
    "FONO": "985277359",
    "LATITUD": -42.315142,
    "LONGITUD": -73.26871,
    "REGION": "LOS LAGOS",
    "PROVINCIA": null,
    "COMUNA": "Quemchi"
  },
  {
    "COD_REG": 10,
    "NOM_REG": "Región De Los Lagos",
    "TIPO": "Posta de Salud Rural (PSR)",
    "NOMBRE": "Posta de Salud Rural Voigue",
    "NUMERO": null,
    "DIRECCION": "Sector Voigue",
    "FONO": "985281459",
    "LATITUD": -42.301222,
    "LONGITUD": -73.218194,
    "REGION": "LOS LAGOS",
    "PROVINCIA": null,
    "COMUNA": "Quemchi"
  },
  {
    "COD_REG": 10,
    "NOM_REG": "Región De Los Lagos",
    "TIPO": "Centro Comunitario de Salud Familiar (CECOSF)",
    "NOMBRE": "Centro Comunitario de Salud Familiar Metahue",
    "NUMERO": null,
    "DIRECCION": "Isla Butachauques, sector Metahue",
    "FONO": "994350094",
    "LATITUD": -42.299393,
    "LONGITUD": -73.127329,
    "REGION": "LOS LAGOS",
    "PROVINCIA": null,
    "COMUNA": "Quemchi"
  },
  {
    "COD_REG": 10,
    "NOM_REG": "Región De Los Lagos",
    "TIPO": "Posta de Salud Rural (PSR)",
    "NOMBRE": "Posta de Salud Rural Puchaurán",
    "NUMERO": null,
    "DIRECCION": "Sector Puchaurán",
    "FONO": null,
    "LATITUD": -42.27252,
    "LONGITUD": -73.5208,
    "REGION": "LOS LAGOS",
    "PROVINCIA": null,
    "COMUNA": "Dalcahue"
  },
  {
    "COD_REG": 10,
    "NOM_REG": "Región De Los Lagos",
    "TIPO": "Posta de Salud Rural (PSR)",
    "NOMBRE": "Posta de Salud Rural Quicaví",
    "NUMERO": null,
    "DIRECCION": "Sector Quicaví",
    "FONO": "993223691",
    "LATITUD": -42.26747,
    "LONGITUD": -73.35307,
    "REGION": "LOS LAGOS",
    "PROVINCIA": null,
    "COMUNA": "Quemchi"
  },
  {
    "COD_REG": 10,
    "NOM_REG": "Región De Los Lagos",
    "TIPO": "Posta de Salud Rural (PSR)",
    "NOMBRE": "Posta de Salud Rural Montemar",
    "NUMERO": null,
    "DIRECCION": "Sector Montemar Bajo",
    "FONO": "994336465",
    "LATITUD": -42.25959,
    "LONGITUD": -73.42806,
    "REGION": "LOS LAGOS",
    "PROVINCIA": null,
    "COMUNA": "Quemchi"
  },
  {
    "COD_REG": 10,
    "NOM_REG": "Región De Los Lagos",
    "TIPO": "Posta de Salud Rural (PSR)",
    "NOMBRE": "Posta de Salud Rural Butalcura",
    "NUMERO": null,
    "DIRECCION": "Localidad Butalcura Km. 60 Ruta 5 Sur",
    "FONO": null,
    "LATITUD": -42.25369,
    "LONGITUD": -73.70632,
    "REGION": "LOS LAGOS",
    "PROVINCIA": null,
    "COMUNA": "Dalcahue"
  },
  {
    "COD_REG": 10,
    "NOM_REG": "Región De Los Lagos",
    "TIPO": "Posta de Salud Rural (PSR)",
    "NOMBRE": "Posta de Salud Rural Hueque",
    "NUMERO": null,
    "DIRECCION": "Sector Hueque",
    "FONO": null,
    "LATITUD": -42.24919,
    "LONGITUD": -72.73722,
    "REGION": "LOS LAGOS",
    "PROVINCIA": null,
    "COMUNA": "Chaitén"
  },
  {
    "COD_REG": 10,
    "NOM_REG": "Región De Los Lagos",
    "TIPO": "Posta de Salud Rural (PSR)",
    "NOMBRE": "Posta de Salud Rural Quinterquén",
    "NUMERO": null,
    "DIRECCION": "Sector Quinterquén",
    "FONO": "994337230",
    "LATITUD": -42.16837,
    "LONGITUD": -73.39694,
    "REGION": "LOS LAGOS",
    "PROVINCIA": null,
    "COMUNA": "Quemchi"
  },
  {
    "COD_REG": 10,
    "NOM_REG": "Región De Los Lagos",
    "TIPO": "Centro de Salud Familiar (CESFAM)",
    "NOMBRE": "Centro de Salud Familiar Quemchi",
    "NUMERO": null,
    "DIRECCION": "Johnstone",
    "FONO": "652891231",
    "LATITUD": -42.14558,
    "LONGITUD": -73.47917,
    "REGION": "LOS LAGOS",
    "PROVINCIA": null,
    "COMUNA": "Quemchi"
  },
  {
    "COD_REG": 10,
    "NOM_REG": "Región De Los Lagos",
    "TIPO": "Servicio de Urgencia Rural (SUR)",
    "NOMBRE": "SUR Quemchi",
    "NUMERO": null,
    "DIRECCION": "Johnstone",
    "FONO": null,
    "LATITUD": -42.145307,
    "LONGITUD": -73.478935,
    "REGION": "LOS LAGOS",
    "PROVINCIA": null,
    "COMUNA": "Quemchi"
  },
  {
    "COD_REG": 10,
    "NOM_REG": "Región De Los Lagos",
    "TIPO": "Centro Comunitario de Salud Familiar (CECOSF)",
    "NOMBRE": "Centro Comunitario de Salud Familiar Puntra Degañ",
    "NUMERO": null,
    "DIRECCION": "Panamericana Sur, cruce ruta W5, camino a Quemchi",
    "FONO": "968786403",
    "LATITUD": -42.14442,
    "LONGITUD": -73.71907,
    "REGION": "LOS LAGOS",
    "PROVINCIA": null,
    "COMUNA": "Ancud"
  },
  {
    "COD_REG": 10,
    "NOM_REG": "Región De Los Lagos",
    "TIPO": "Posta de Salud Rural (PSR)",
    "NOMBRE": "Posta de Salud Rural Morrolobos",
    "NUMERO": null,
    "DIRECCION": "Sector Morrolobos",
    "FONO": "994419876",
    "LATITUD": -42.126726,
    "LONGITUD": -73.389938,
    "REGION": "LOS LAGOS",
    "PROVINCIA": null,
    "COMUNA": "Quemchi"
  },
  {
    "COD_REG": 10,
    "NOM_REG": "Región De Los Lagos",
    "TIPO": "Posta de Salud Rural (PSR)",
    "NOMBRE": "Posta de Salud Rural Paso El Bolsón o Segundo Corral",
    "NUMERO": null,
    "DIRECCION": "Sector Paso El Bolsón o Segundo Corral",
    "FONO": null,
    "LATITUD": -42.076207,
    "LONGITUD": -71.864474,
    "REGION": "LOS LAGOS",
    "PROVINCIA": null,
    "COMUNA": "Cochamó"
  },
  {
    "COD_REG": 10,
    "NOM_REG": "Región De Los Lagos",
    "TIPO": "Posta de Salud Rural (PSR)",
    "NOMBRE": "Posta de Salud Rural Lliuco (Quemchi)",
    "NUMERO": null,
    "DIRECCION": "Sector Lliuco",
    "FONO": "993453136",
    "LATITUD": -42.03023,
    "LONGITUD": -73.47273,
    "REGION": "LOS LAGOS",
    "PROVINCIA": null,
    "COMUNA": "Quemchi"
  },
  {
    "COD_REG": 10,
    "NOM_REG": "Región De Los Lagos",
    "TIPO": "Posta de Salud Rural (PSR)",
    "NOMBRE": "Posta de Salud Rural Coipomo",
    "NUMERO": null,
    "DIRECCION": "Sector Coipomo",
    "FONO": "983440711",
    "LATITUD": -42.02493,
    "LONGITUD": -73.90644,
    "REGION": "LOS LAGOS",
    "PROVINCIA": null,
    "COMUNA": "Ancud"
  },
  {
    "COD_REG": 10,
    "NOM_REG": "Región De Los Lagos",
    "TIPO": "Centro Comunitario de Salud Familiar (CECOSF)",
    "NOMBRE": "Centro Comunitario de Salud Familiar Hualaihué",
    "NUMERO": null,
    "DIRECCION": "Hualaihué Puerto",
    "FONO": "650825",
    "LATITUD": -42.02333,
    "LONGITUD": -72.68656,
    "REGION": "LOS LAGOS",
    "PROVINCIA": null,
    "COMUNA": "Hualaihué"
  },